{
    "providers": "etc",
    "results": [
        {
            "Name": "กรมส่งเสริมอุตสาหกรรม พระราม 6",
            "description": null,
            "Name_EN": null,
            "Power": "10 kW",
            "Address": null,
            "Latitude": 13.762979,
            "Longitude": 100.527844,
            "Provider": "EVolt"
        },
        {
            "Name": "กรมส่งเสริมอุตสาหกรรม กล้วยน้ำไท",
            "description": null,
            "Name_EN": null,
            "Power": "10 kW",
            "Address": null,
            "Latitude": 13.709785,
            "Longitude": 100.585818,
            "Provider": "EVolt"
        },
        {
            "Name": "ศูนย์ส่งเสริมอุตสาหกรรม ขอนแก่น",
            "description": null,
            "Name_EN": null,
            "Power": "10 kW",
            "Address": null,
            "Latitude": 16.563125,
            "Longitude": 102.822762,
            "Provider": "EVolt"
        },
        {
            "Name": "ศูนย์ส่งเสริมอุตสาหกรรม เชียงใหม่",
            "description": null,
            "Name_EN": null,
            "Power": "10 kW",
            "Address": null,
            "Latitude": 18.791344,
            "Longitude": 99.017955,
            "Provider": "EVolt"
        },
        {
            "Name": "66 Tower",
            "description": null,
            "Name_EN": null,
            "Power": "100 kW",
            "Address": null,
            "Latitude": 13.681871,
            "Longitude": 100.610011,
            "Provider": "EVolt"
        },
        {
            "Name": "สยาม สแควร์ วัน",
            "description": "6x CCS2",
            "Name_EN": null,
            "Power": "160 kW",
            "Address": null,
            "Latitude": 13.7441996,
            "Longitude": 100.5342088,
            "Provider": "GWM"
        },
        {
            "Name": "GWM แอทยูพาร์ค บางนา",
            "description": null,
            "Name_EN": null,
            "Power": null,
            "Address": null,
            "Latitude": 13.6321179,
            "Longitude": 100.7153033,
            "Provider": "GWM"
        },
        {
            "Name": "GWM มอเตอร์ มอลล์ พระราม 2",
            "description": null,
            "Name_EN": null,
            "Power": null,
            "Address": null,
            "Latitude": 13.6610647,
            "Longitude": 100.4379089,
            "Provider": "GWM"
        },
        {
            "Name": "GWM พระราม 5",
            "description": null,
            "Name_EN": null,
            "Power": null,
            "Address": null,
            "Latitude": 13.8237049,
            "Longitude": 100.4433511,
            "Provider": "GWM"
        },
        {
            "Name": "The American School of Bangkok",
            "description": "1x CCS2",
            "Name_EN": null,
            "Power": "30 kW",
            "Address": null,
            "Latitude": 13.61364,
            "Longitude": 100.72463,
            "Provider": "EVolt"
        },
        {
            "Name": "Topgolf Megacity",
            "description": "1x CCS2",
            "Name_EN": null,
            "Power": "24 kW",
            "Address": null,
            "Latitude": 13.64344,
            "Longitude": 100.67563,
            "Provider": "EVolt"
        },
        {
            "Name": "Volvo Tanasit Distribution",
            "description": null,
            "Name_EN": null,
            "Power": "150 kW",
            "Address": null,
            "Latitude": 16.46295,
            "Longitude": 102.77016,
            "Provider": "EVolt"
        },
        {
            "Name": "Volvo Horizon Auto",
            "description": "2x CCS2",
            "Name_EN": null,
            "Power": "150 kW",
            "Address": null,
            "Latitude": 7.03787,
            "Longitude": 100.4593,
            "Provider": "EVolt"
        },
        {
            "Name": "GWM เกรท วัน ออโต้ แจ้งวัฒนะ",
            "description": null,
            "Name_EN": null,
            "Power": null,
            "Address": null,
            "Latitude": 13.906405,
            "Longitude": 100.5184421,
            "Provider": "GWM"
        },
        {
            "Name": "GWM อมรรัชดา",
            "description": null,
            "Name_EN": null,
            "Power": null,
            "Address": null,
            "Latitude": 13.8253065,
            "Longitude": 100.5723421,
            "Provider": "GWM"
        },
        {
            "Name": "Brio Mall",
            "description": "2x CCS2",
            "Name_EN": null,
            "Power": null,
            "Address": null,
            "Latitude": 13.7861455,
            "Longitude": 100.3296899,
            "Provider": null
        },
        {
            "Name": "KX Knowledge Exchange",
            "description": "ชั้น 2",
            "Name_EN": null,
            "Power": "25 kW",
            "Address": null,
            "Latitude": 13.7207204,
            "Longitude": 100.4963168,
            "Provider": "Haup"
        },
        {
            "Name": "KMUTT หน้าตึกอธิการ",
            "description": null,
            "Name_EN": null,
            "Power": "25 kW",
            "Address": null,
            "Latitude": 13.6514371,
            "Longitude": 100.4953504,
            "Provider": "Haup"
        },
        {
            "Name": "Volvo Merck Auto",
            "description": "2x CCS2",
            "Name_EN": null,
            "Power": "100 kW",
            "Address": null,
            "Latitude": 13.69998,
            "Longitude": 100.54545,
            "Provider": "EVolt"
        },
        {
            "Name": "SCG Home บุญถาวร จันทบุรี",
            "description": null,
            "Name_EN": null,
            "Power": "180 kW",
            "Address": null,
            "Latitude": 12.60591,
            "Longitude": 102.1341,
            "Provider": "EVolt"
        },
        {
            "Name": "GWM วัน เทพารักษ์",
            "description": null,
            "Name_EN": null,
            "Power": null,
            "Address": null,
            "Latitude": 13.611879296099227,
            "Longitude": 100.66867957368554,
            "Provider": "GWM"
        },
        {
            "Name": "GWM พระนคร อุดมสุข",
            "description": null,
            "Name_EN": null,
            "Power": null,
            "Address": null,
            "Latitude": 13.6856259993891,
            "Longitude": 100.60964708793885,
            "Provider": "GWM"
        },
        {
            "Name": "GWM พระนคร สระบุรี",
            "description": null,
            "Name_EN": null,
            "Power": null,
            "Address": null,
            "Latitude": 14.463772,
            "Longitude": 100.905842,
            "Provider": "GWM"
        },
        {
            "Name": "GWM เอก ระยอง",
            "description": null,
            "Name_EN": null,
            "Power": null,
            "Address": null,
            "Latitude": 12.711354988358,
            "Longitude": 101.2326223827,
            "Provider": "GWM"
        },
        {
            "Name": "GWM เอก จันทบุรี ",
            "description": null,
            "Name_EN": null,
            "Power": null,
            "Address": null,
            "Latitude": 12.602278,
            "Longitude": 102.135448,
            "Provider": "GWM"
        },
        {
            "Name": "GWM แองเจิลเวย์ เชียงราย",
            "description": null,
            "Name_EN": null,
            "Power": null,
            "Address": null,
            "Latitude": 19.875682,
            "Longitude": 99.829696,
            "Provider": "GWM"
        },
        {
            "Name": "GWM ซีซีซีออโต้ เชียงใหม่",
            "description": null,
            "Name_EN": null,
            "Power": null,
            "Address": null,
            "Latitude": 18.726942,
            "Longitude": 99.039911,
            "Provider": "GWM"
        },
        {
            "Name": "GWM เคที สุราษฎร์ธานี",
            "description": null,
            "Name_EN": null,
            "Power": null,
            "Address": null,
            "Latitude": 9.113599,
            "Longitude": 99.280487,
            "Provider": "GWM"
        },
        {
            "Name": "GWM ชูเกียรติ นครศรีธรรมราช",
            "description": null,
            "Name_EN": null,
            "Power": null,
            "Address": null,
            "Latitude": 8.431201003035547,
            "Longitude": 99.92199044856311,
            "Provider": "GWM"
        },
        {
            "Name": "GWM ชูเกียรติ หาดใหญ่",
            "description": null,
            "Name_EN": null,
            "Power": null,
            "Address": null,
            "Latitude": 7.0406525201756756,
            "Longitude": 100.46285785972324,
            "Provider": "GWM"
        },
        {
            "Name": "GWM ชูเกียรติ กระบี่",
            "description": null,
            "Name_EN": null,
            "Power": null,
            "Address": null,
            "Latitude": 8.108411673436915,
            "Longitude": 98.93101758898364,
            "Provider": "GWM"
        },
        {
            "Name": "GWM อนุภาษ ภูเก็ต",
            "description": null,
            "Name_EN": null,
            "Power": null,
            "Address": null,
            "Latitude": 7.977759293998356,
            "Longitude": 98.36130662598522,
            "Provider": "GWM"
        },
        {
            "Name": "GWM ซีซีซีออโต้ อุบลราชธานี",
            "description": null,
            "Name_EN": null,
            "Power": null,
            "Address": null,
            "Latitude": 15.337669,
            "Longitude": 104.829359,
            "Provider": "GWM"
        },
        {
            "Name": "GWM เอกสห โคราช",
            "description": null,
            "Name_EN": null,
            "Power": null,
            "Address": null,
            "Latitude": 15.0064,
            "Longitude": 102.123377,
            "Provider": "GWM"
        },
        {
            "Name": "GWM เพรสทีจ ธัญบุรี",
            "description": null,
            "Name_EN": null,
            "Power": null,
            "Address": null,
            "Latitude": 14.0241725,
            "Longitude": 100.7426406,
            "Provider": "GWM"
        },
        {
            "Name": "Volvo Phranakorn Vibhavadi",
            "description": "2x CCS2",
            "Name_EN": null,
            "Power": "150 kW",
            "Address": null,
            "Latitude": 13.83843,
            "Longitude": 100.55796,
            "Provider": "EVolt"
        },
        {
            "Name": "Volvo Phranakorn Ladprao",
            "description": "2x CCS2",
            "Name_EN": null,
            "Power": "150 kW",
            "Address": null,
            "Latitude": 13.77322,
            "Longitude": 100.63325,
            "Provider": "EVolt"
        },
        {
            "Name": "Volvo 14 Auto Marque - Rama 2",
            "description": "2x CCS2",
            "Name_EN": null,
            "Power": "150 kW",
            "Address": null,
            "Latitude": 13.68053,
            "Longitude": 100.46942,
            "Provider": "EVolt"
        },
        {
            "Name": "Volvo Scandinavian Auto Ramintra",
            "description": "2x CCS2",
            "Name_EN": null,
            "Power": "150 kW",
            "Address": null,
            "Latitude": 13.8678,
            "Longitude": 100.60915,
            "Provider": "EVolt"
        },
        {
            "Name": "Volvo Scandinavian Auto Bangna",
            "description": "2x CCS2",
            "Name_EN": null,
            "Power": "150 kW",
            "Address": null,
            "Latitude": 13.6687,
            "Longitude": 100.63268,
            "Provider": "EVolt"
        },
        {
            "Name": "Assawin Asset",
            "description": "2x CCS2",
            "Name_EN": null,
            "Power": "50 kW",
            "Address": null,
            "Latitude": 13.9,
            "Longitude": 100.45067,
            "Provider": "EVolt"
        },
        {
            "Name": "Volvo MWONE BangBuaThong",
            "description": "2x CCS2",
            "Name_EN": null,
            "Power": "150 kW",
            "Address": null,
            "Latitude": 13.9315,
            "Longitude": 100.41473,
            "Provider": "EVolt"
        },
        {
            "Name": "Pepsi-Cola Trading Rojana",
            "description": "2x CCS2",
            "Name_EN": null,
            "Power": "50 kW",
            "Address": null,
            "Latitude": 14.33651,
            "Longitude": 100.70743,
            "Provider": "EVolt"
        },
        {
            "Name": "Central Ladprao",
            "description": "11 Superchargers, 10:00am - 10:00pm, 3rd floor parking lot",
            "Name_EN": null,
            "Power": "250 kW",
            "Address": "Central Ladprao, 1693 Phahonyothin Road, Khwaeng Chatuchak",
            "Latitude": 13.8171677,
            "Longitude": 100.5615817,
            "Provider": "Tesla"
        },
        {
            "Name": "Marché Thonglor",
            "description": "8 Superchargers, available 24/7, B1 floor parking lot A15-A16",
            "Name_EN": null,
            "Power": "250 kW",
            "Address": "Marché Thonglor, 150 Soi Sukhumvit 55, Khwaeng Khlong Tan Nuea",
            "Latitude": 13.728343,
            "Longitude": 100.5810975,
            "Provider": "Tesla"
        },
        {
            "Name": "ICONSIAM",
            "description": "10 Superchargers, 10:00am - 10:00pm, 2nd floor parking lot D6-E6",
            "Name_EN": null,
            "Power": "250 kW",
            "Address": "ICONSIAM, Bangkok, 299 Soi Charoen Nakhon 5, Khwaeng Khlong Ton Sai",
            "Latitude": 13.7270309,
            "Longitude": 100.5103443,
            "Provider": "Tesla"
        },
        {
            "Name": "Central Village",
            "description": "8 Superchargers, available 24/7, Outdoor parking",
            "Name_EN": null,
            "Power": "250 kW",
            "Address": "Central Village, Samut Prakan, 98/1 Thanon Suvarnabhumi 3, ",
            "Latitude": 13.6367603,
            "Longitude": 100.7467662,
            "Provider": "Tesla"
        },
        {
            "Name": "Central World",
            "description": "9 Superchargers, available 24/7, B1 floor parking lot G36-G37 & F36-F38",
            "Name_EN": null,
            "Power": "250 kW",
            "Address": "Central World, 4 4/1-4/2 Rama I Rd, Khwaeng Pathum Wan",
            "Latitude": 13.7467377,
            "Longitude": 100.5398451,
            "Provider": "Tesla"
        },
        {
            "Name": "Central Rama 3",
            "description": "4 Superchargers, 10:00am - 10:00pm, 1st floor parking lot F09",
            "Name_EN": null,
            "Power": "250 kW",
            "Address": "Central Rama 3, 79 Ratchadaphisek Rd, Chong Nonsi",
            "Latitude": 13.6976214,
            "Longitude": 100.5374853,
            "Provider": "Tesla"
        },
        {
            "Name": "Central Ayutthaya",
            "description": "6 Superchargers, available 24/7, B1 (LG) floor parking lot",
            "Name_EN": null,
            "Power": "250 kW",
            "Address": "Central Ayutthaya, Ayutthaya, 129/1, 129/2, 129/3 Asia Road, ",
            "Latitude": 14.3307727,
            "Longitude": 100.6111294,
            "Provider": "Tesla"
        },
        {
            "Name": "Central Rama 2",
            "description": "8 Superchargers, 10:00am - 10:00pm, G floor parking lot (Star Zone) 47b-47e",
            "Name_EN": null,
            "Power": "250 kW",
            "Address": "Central Rama 2, 160 Thanon Praram 2, Khwaeng Samae Dam",
            "Latitude": 13.6636786,
            "Longitude": 100.4393851,
            "Provider": "Tesla"
        },
        {
            "Name": "Central Pattaya",
            "description": "12 Superchargers, available 24/7, 6th floor parking lot C05-C07",
            "Name_EN": null,
            "Power": "250 kW",
            "Address": "33/99  moo 9 Banglamung, Banglamung",
            "Latitude": 12.9345142,
            "Longitude": 100.8832141,
            "Provider": "Tesla"
        },
        {
            "Name": "Central Korat",
            "description": "8 Superchargers, 10:00am - 9:00pm, Parking B building, 3rd floor",
            "Name_EN": null,
            "Power": "250 kW",
            "Address": "990 Thanon Mittraphap, ",
            "Latitude": 14.9968858,
            "Longitude": 102.1157215,
            "Provider": "Tesla"
        },
        {
            "Name": "กฟน เพลินจิต",
            "description": "CCS2, CHAdeMO, Type 2",
            "Name_EN": "MEA Ploen Chit",
            "Power": "50 kW",
            "Address": null,
            "Latitude": 13.74436,
            "Longitude": 100.543503,
            "Provider": "MEA"
        },
        {
            "Name": "การไฟฟ้านครหลวง คลองเตย",
            "description": "4x CCS2, 2x Type 2",
            "Name_EN": "MEA Klong Toei",
            "Power": "125 kW",
            "Address": null,
            "Latitude": 13.72112,
            "Longitude": 100.55549,
            "Provider": "MEA"
        },
        {
            "Name": "กฟน วัดเลียบ",
            "description": "CCS2, CHAdeMO, Type 2",
            "Name_EN": "MEA Wat Liab",
            "Power": "50 kW",
            "Address": null,
            "Latitude": 13.74208,
            "Longitude": 100.50052,
            "Provider": "MEA"
        },
        {
            "Name": "กฟน ราษฎร์บูรณะ",
            "description": "CCS2, Type 2",
            "Name_EN": "MEA Rat Burana",
            "Power": "50 kW",
            "Address": null,
            "Latitude": 13.67921,
            "Longitude": 100.51302,
            "Provider": "MEA"
        },
        {
            "Name": "กฟน ธนบุรี",
            "description": "CCS2, CHAdeMO, Type 2",
            "Name_EN": "MEA Thon Buri",
            "Power": "50 kW",
            "Address": null,
            "Latitude": 13.7459,
            "Longitude": 100.47071,
            "Provider": "MEA"
        },
        {
            "Name": "กฟน สมุทรปราการ",
            "description": "CCS2, CHAdeMO, Type 2",
            "Name_EN": "MEA Samut Prakarn",
            "Power": "50 kW",
            "Address": null,
            "Latitude": 13.59509,
            "Longitude": 100.60679,
            "Provider": "MEA"
        },
        {
            "Name": "กฟน ลาดกระบัง",
            "description": "CCS2, CHAdeMO, Type 2",
            "Name_EN": "MEA Lat Krabang",
            "Power": "50 kW",
            "Address": null,
            "Latitude": 13.8154,
            "Longitude": 100.74637,
            "Provider": "MEA"
        },
        {
            "Name": "กฟน บางเขน",
            "description": "CCS2, CHAdeMO, Type 2",
            "Name_EN": "MEA Bang Khen\n",
            "Power": "50 kW",
            "Address": null,
            "Latitude": 13.87111,
            "Longitude": 100.59528,
            "Provider": "MEA"
        },
        {
            "Name": "กฟน บางพูด",
            "description": "3x CCS2, CHAdeMO, 5x Type 2",
            "Name_EN": "MEA Bang Pood",
            "Power": "50 kW",
            "Address": null,
            "Latitude": 13.92793,
            "Longitude": 100.52736,
            "Provider": "MEA"
        },
        {
            "Name": "กฟน บางใหญ่",
            "description": "CCS2, CHAdeMO, Type 2",
            "Name_EN": "MEA Bang Yai",
            "Power": "50 kW",
            "Address": null,
            "Latitude": 13.84864,
            "Longitude": 100.43522,
            "Provider": "MEA"
        },
        {
            "Name": "กฟน บางบัวทอง",
            "description": "CCS2, Type 2",
            "Name_EN": "MEA Bang Buathong",
            "Power": "50 kW",
            "Address": null,
            "Latitude": 13.94566,
            "Longitude": 100.37963,
            "Provider": "MEA"
        },
        {
            "Name": "กฟน บางพลี",
            "description": "CCS2, 3x Type 2",
            "Name_EN": "MEA Bang Plee",
            "Power": "50 kW",
            "Address": null,
            "Latitude": 13.64145,
            "Longitude": 100.71302,
            "Provider": "MEA"
        },
        {
            "Name": "Pepsi-Cola Trading Lamphun",
            "description": "2x CCS2",
            "Name_EN": null,
            "Power": "50 kW",
            "Address": null,
            "Latitude": 18.61882,
            "Longitude": 99.0473,
            "Provider": "EVolt"
        },
        {
            "Name": "alt.Eatery sukhumvit 51",
            "description": "CCS2: 50 kW, CHAdeMO: 50 kW, Type2: 22 kW, Type2: 50 kW",
            "Name_EN": null,
            "Power": "50 kW",
            "Address": null,
            "Latitude": 13.7258431,
            "Longitude": 100.5767111,
            "Provider": "Sharge"
        },
        {
            "Name": "Bangchak Bangna",
            "description": "2x CCS2: 60 kW, Type2: 22 kW",
            "Name_EN": null,
            "Power": "60 kW",
            "Address": null,
            "Latitude": 13.6516098,
            "Longitude": 100.6774092,
            "Provider": "Sharge"
        },
        {
            "Name": "Bangchak Hua Hin",
            "description": "2x CCS2: 60 kW, Type2: 22 kW",
            "Name_EN": null,
            "Power": "60 kW",
            "Address": null,
            "Latitude": 12.5741481,
            "Longitude": 99.95555577,
            "Provider": "Sharge"
        },
        {
            "Name": "Bangchak Rama 9",
            "description": "2x CCS2: 60 kW, Type2: 22 kW",
            "Name_EN": null,
            "Power": "60 kW",
            "Address": null,
            "Latitude": 13.7418496,
            "Longitude": 100.6287627,
            "Provider": "Sharge"
        },
        {
            "Name": "Bangchak Sukhumvit 62",
            "description": "2x CCS2: 60 kW",
            "Name_EN": null,
            "Power": "60 kW",
            "Address": null,
            "Latitude": 13.69551,
            "Longitude": 100.60571,
            "Provider": "Sharge"
        },
        {
            "Name": "BYD B Infinite Surat Thani Bypass",
            "description": "2x CCS2: 60 kW, 2x Type2: 22 kW",
            "Name_EN": null,
            "Power": "60 kW",
            "Address": null,
            "Latitude": 9.141780163322585,
            "Longitude": 99.36524616814899,
            "Provider": "Sharge"
        },
        {
            "Name": "BYD B1 Ratchaburi",
            "description": "2x CCS2: 60 kW, 2x Type2: 22 kW",
            "Name_EN": null,
            "Power": "60 kW",
            "Address": null,
            "Latitude": 13.550184282911,
            "Longitude": 99.8115760180059,
            "Provider": "Sharge"
        },
        {
            "Name": "BYD BKK Group Minburi-Ramindra",
            "description": "2x CCS2: 60 kW, 2x Type2: 22 kW",
            "Name_EN": null,
            "Power": "60 kW",
            "Address": null,
            "Latitude": 13.86036182085476,
            "Longitude": 100.70452778557824,
            "Provider": "Sharge"
        },
        {
            "Name": "BYD BNT Mobility Nakhon Nayok",
            "description": "2x CCS2: 60 kW, 2x Type2: 22 kW",
            "Name_EN": null,
            "Power": "60 kW",
            "Address": null,
            "Latitude": 14.223684387122454,
            "Longitude": 101.18115755470646,
            "Provider": "Sharge"
        },
        {
            "Name": "BYD Chonburi Group Pattaya",
            "description": "2x CCS2: 60 kW, 2x Type2: 22 kW",
            "Name_EN": null,
            "Power": "60 kW",
            "Address": null,
            "Latitude": 12.986430430158302,
            "Longitude": 100.92300595243067,
            "Provider": "Sharge"
        },
        {
            "Name": "BYD Dream car Group Rayong",
            "description": "2x CCS2: 60 kW, 2x Type2: 22 kW",
            "Name_EN": null,
            "Power": "60 kW",
            "Address": null,
            "Latitude": 12.685384648690034,
            "Longitude": 101.21477726090299,
            "Provider": "Sharge"
        },
        {
            "Name": "BYD J S Group Nakhon Pathom",
            "description": "2x CCS2: 60 kW, 2x Type2: 22 kW",
            "Name_EN": null,
            "Power": "60 kW",
            "Address": null,
            "Latitude": 13.798903134543323,
            "Longitude": 99.97538997190617,
            "Provider": "Sharge"
        },
        {
            "Name": "BYD Kwang Thai Ekamai-Ramindra",
            "description": "2x CCS2: 60 kW, 2x Type2: 22 kW",
            "Name_EN": null,
            "Power": "60 kW",
            "Address": null,
            "Latitude": 13.7998631,
            "Longitude": 100.6152497,
            "Provider": "Sharge"
        },
        {
            "Name": "BYD Rêver Automotive Rama2",
            "description": "2x CCS2: 60 kW, 2x Type2: 22 kW",
            "Name_EN": null,
            "Power": "60 kW",
            "Address": null,
            "Latitude": 13.6612132,
            "Longitude": 100.4381523,
            "Provider": "Sharge"
        },
        {
            "Name": "BYD Rêver Automotive Rama9",
            "description": "2x CCS2: 60 kW, 2x Type2: 22 kW",
            "Name_EN": null,
            "Power": "60 kW",
            "Address": null,
            "Latitude": 13.7424213,
            "Longitude": 100.6344698,
            "Provider": "Sharge"
        },
        {
            "Name": "BYD Sor.Aroon Group Chainat",
            "description": "2x CCS2: 60 kW, 2x Type2: 22 kW",
            "Name_EN": null,
            "Power": "60 kW",
            "Address": null,
            "Latitude": 15.290731802141659,
            "Longitude": 100.19410998349294,
            "Provider": "Sharge"
        },
        {
            "Name": "BYD Sor.Aroon Group Uthaithani",
            "description": "2x CCS2: 60 kW, 2x Type2: 22 kW",
            "Name_EN": null,
            "Power": "60 kW",
            "Address": null,
            "Latitude": 15.40415025834672,
            "Longitude": 100.03617401772317,
            "Provider": "Sharge"
        },
        {
            "Name": "BYD Spyder Group Petchakasem",
            "description": "2x CCS2: 60 kW, 2x Type2: 22 kW",
            "Name_EN": null,
            "Power": "60 kW",
            "Address": null,
            "Latitude": 13.708584394541129,
            "Longitude": 100.38507464001448,
            "Provider": "Sharge"
        },
        {
            "Name": "BYD Srisomboon Group Lop Buri",
            "description": "2x CCS2: 60 kW, 2x Type2: 22 kW",
            "Name_EN": null,
            "Power": "60 kW",
            "Address": null,
            "Latitude": 14.764824269934275,
            "Longitude": 100.71547697976176,
            "Provider": "Sharge"
        },
        {
            "Name": "BYD SUSCO Beyond Pratunam Phra-in",
            "description": "2x CCS2: 60 kW, 2x Type2: 22 kW",
            "Name_EN": null,
            "Power": "60 kW",
            "Address": null,
            "Latitude": 14.150844356404525,
            "Longitude": 100.61858523999875,
            "Provider": "Sharge"
        },
        {
            "Name": "Shell Asoke",
            "description": "CCS2: 90 kW, CHAdeMO: 90 kW, Type2: 90 kW",
            "Name_EN": null,
            "Power": "90 kW",
            "Address": null,
            "Latitude": 13.7430786,
            "Longitude": 100.5622713,
            "Provider": "Sharge"
        },
        {
            "Name": "Ekkamai Power center",
            "description": "CCS2: 50 kW, Type2: 22 kW",
            "Name_EN": null,
            "Power": "50 kW",
            "Address": null,
            "Latitude": 13.72656,
            "Longitude": 100.58545,
            "Provider": "Sharge"
        },
        {
            "Name": "La villa ari",
            "description": "CCS2: 50 kW, Type2: 22 kW",
            "Name_EN": null,
            "Power": "50 kW",
            "Address": null,
            "Latitude": 13.7799,
            "Longitude": 100.54507,
            "Provider": "Sharge"
        },
        {
            "Name": "Market Place Krungthep Kreetha",
            "description": "CCS2: 50 kW, Type2: 22 kW",
            "Name_EN": null,
            "Power": "50 kW",
            "Address": null,
            "Latitude": 13.74988,
            "Longitude": 100.66743,
            "Provider": "Sharge"
        },
        {
            "Name": "Shell Bang Yai",
            "description": "2x CCS2: 180 kW",
            "Name_EN": null,
            "Power": "180 kW",
            "Address": null,
            "Latitude": 13.835807,
            "Longitude": 100.413976,
            "Provider": "Sharge"
        },
        {
            "Name": "Shell Chumphon",
            "description": "2x CCS2: 90 kW",
            "Name_EN": null,
            "Power": "90 kW",
            "Address": null,
            "Latitude": 10.5644408,
            "Longitude": 99.11620575,
            "Provider": "Sharge"
        },
        {
            "Name": "SHELL DO SOMSAK KLANG Rayong",
            "description": "2x CCS2: 90 kW, 2x Type2: 22 kW",
            "Name_EN": null,
            "Power": "90 kW",
            "Address": null,
            "Latitude": 12.782678165804768,
            "Longitude": 101.68936387469633,
            "Provider": "Sharge"
        },
        {
            "Name": "SHELL HW204 Bypass Korat",
            "description": "2x CCS2: 90 kW",
            "Name_EN": null,
            "Power": "90 kW",
            "Address": null,
            "Latitude": 15.060990380816223,
            "Longitude": 102.17410191732306,
            "Provider": "Sharge"
        },
        {
            "Name": "SHELL LADKRABANG",
            "description": "2x CCS2: 90 kW",
            "Name_EN": null,
            "Power": "90 kW",
            "Address": null,
            "Latitude": 13.71478723544262,
            "Longitude": 100.81047704054349,
            "Provider": "Sharge"
        },
        {
            "Name": "Shell Nakhon Sawan",
            "description": "2x CCS2: 90 kW",
            "Name_EN": null,
            "Power": "90 kW",
            "Address": null,
            "Latitude": 15.546164,
            "Longitude": 100.127523,
            "Provider": "Sharge"
        },
        {
            "Name": "Shell Nakhonsithammarat",
            "description": "2x CCS2: 90 kW",
            "Name_EN": null,
            "Power": "90 kW",
            "Address": null,
            "Latitude": 8.176187,
            "Longitude": 99.6317908,
            "Provider": "Sharge"
        },
        {
            "Name": "SHELL NTI Buriram Intown Before Bypass",
            "description": "2x CCS2: 90 kW",
            "Name_EN": null,
            "Power": "90 kW",
            "Address": null,
            "Latitude": 14.977017393374854,
            "Longitude": 103.07055556219034,
            "Provider": "Sharge"
        },
        {
            "Name": "SHELL NTI Phaholyothin Wangnoi",
            "description": "2x CCS2: 90 kW",
            "Name_EN": null,
            "Power": "90 kW",
            "Address": null,
            "Latitude": 14.185445587205951,
            "Longitude": 100.6277225026994,
            "Provider": "Sharge"
        },
        {
            "Name": "SHELL NUAN CHAN",
            "description": "2x CCS2: 90 kW",
            "Name_EN": null,
            "Power": "90 kW",
            "Address": null,
            "Latitude": 13.838971395668413,
            "Longitude": 100.63483231374332,
            "Provider": "Sharge"
        },
        {
            "Name": "Shell Pak Chong",
            "description": "2x CCS2: 90 kW",
            "Name_EN": null,
            "Power": "90 kW",
            "Address": null,
            "Latitude": 14.6642606,
            "Longitude": 101.4143777,
            "Provider": "Sharge"
        },
        {
            "Name": "Shell Phuket",
            "description": "2x CCS2: 90 kW",
            "Name_EN": null,
            "Power": "90 kW",
            "Address": null,
            "Latitude": 7.9822513,
            "Longitude": 98.3620823,
            "Provider": "Sharge"
        },
        {
            "Name": "Shell Prasert Manukit",
            "description": "2x CCS2: 180 kW",
            "Name_EN": null,
            "Power": "180 kW",
            "Address": null,
            "Latitude": 13.831124153247785,
            "Longitude": 100.61335473558229,
            "Provider": "Sharge"
        },
        {
            "Name": "Shell Rayong",
            "description": "2x CCS2: 90 kW",
            "Name_EN": null,
            "Power": "90 kW",
            "Address": null,
            "Latitude": 12.7800027,
            "Longitude": 101.1641632,
            "Provider": "Sharge"
        },
        {
            "Name": "Shell Songkhla",
            "description": "2x CCS2: 90 kW",
            "Name_EN": null,
            "Power": "90 kW",
            "Address": null,
            "Latitude": 7.0093338,
            "Longitude": 100.4146241,
            "Provider": "Sharge"
        },
        {
            "Name": "Shell Surat Thani",
            "description": "2x CCS2: 90 kW",
            "Name_EN": null,
            "Power": "90 kW",
            "Address": null,
            "Latitude": 9.16768003,
            "Longitude": 99.13876541,
            "Provider": "Sharge"
        },
        {
            "Name": "Shell Tak",
            "description": "2x CCS2: 90 kW",
            "Name_EN": null,
            "Power": "90 kW",
            "Address": null,
            "Latitude": 16.9083734,
            "Longitude": 99.1211256,
            "Provider": "Sharge"
        },
        {
            "Name": "Shell HuaHin@Thew Talay",
            "description": "2x CCS2: 90 kW",
            "Name_EN": null,
            "Power": "90 kW",
            "Address": null,
            "Latitude": 12.75847,
            "Longitude": 99.963383,
            "Provider": "Sharge"
        },
        {
            "Name": "90Hit's Pub & Restaurant",
            "description": "1x CCS2",
            "Name_EN": null,
            "Power": "30 kW",
            "Address": "ถนน ยันตรกิจโกศล ตำบล ป่าแมต อำเภอเมืองแพร่ แพร่ ประเทศไทย 54000 แพร่",
            "Latitude": 18.118559032,
            "Longitude": 100.140635402,
            "Provider": "OneCharge"
        },
        {
            "Name": "ร้าน ณ.นา Minibus Cafe",
            "description": "1x CCS2",
            "Name_EN": null,
            "Power": "30 kW",
            "Address": "235 ถนน พญาพล ตำบล ในเวียง อำเภอเมืองแพร่ แพร่ ประเทศไทย",
            "Latitude": 18.126586882,
            "Longitude": 100.138791995,
            "Provider": "OneCharge"
        },
        {
            "Name": "บ้านไม้คาเฟ่ Barbelone        ",
            "description": "1x CCS2",
            "Name_EN": null,
            "Power": "40 kW",
            "Address": "Nai Mueang, Ban Phai District, Khon Kaen 40110",
            "Latitude": 16.068419688,
            "Longitude": 102.732941843,
            "Provider": "OneCharge"
        },
        {
            "Name": "Tesla Center Ramkhamhaeng",
            "description": "12 Superchargers, available 24/7",
            "Name_EN": null,
            "Power": "250 kW",
            "Address": "Tesla Centre, 7, 7/1 Ramkhamhaeng Rd\nBangkok",
            "Latitude": 13.774519,
            "Longitude": 100.667773,
            "Provider": "Tesla"
        },
        {
            "Name": "Robinson Lifestyle Kamphaengphet",
            "description": "6 Superchargers, available 24/7, Parking Zone B near Cafe Amazon",
            "Name_EN": null,
            "Power": "250 kW",
            "Address": "651/1 Thanon Charoensuk, Tambon Nai Mueang, KAMPHAENGPHET",
            "Latitude": 16.4760888,
            "Longitude": 99.5502698,
            "Provider": "Tesla"
        },
        {
            "Name": "Central Lampang",
            "description": "6 Superchargers",
            "Name_EN": null,
            "Power": "250 kW",
            "Address": null,
            "Latitude": 18.2827806,
            "Longitude": 99.4937586,
            "Provider": "Tesla"
        },
        {
            "Name": "Chiang Mai (Coming Soon)",
            "description": null,
            "Name_EN": null,
            "Power": "250 kW",
            "Address": null,
            "Latitude": 18.8230676,
            "Longitude": 99.0120196,
            "Provider": "Tesla"
        },
        {
            "Name": "Chumphon (Coming Soon)",
            "description": null,
            "Name_EN": null,
            "Power": "250 kW",
            "Address": null,
            "Latitude": 10.8995707,
            "Longitude": 99.2765402,
            "Provider": "Tesla"
        },
        {
            "Name": "B-Charge Ban Silalang Coffee",
            "description": "CCS2: 30 kW, Type2: 22 kW",
            "Name_EN": null,
            "Power": "30 kW",
            "Address": null,
            "Latitude": 16.5707585,
            "Longitude": 99.4438904,
            "Provider": "Galvanic"
        },
        {
            "Name": "EV Pro Station",
            "description": "2x CCS2: 47 kW",
            "Name_EN": null,
            "Power": "47 kW",
            "Address": null,
            "Latitude": 13.72623,
            "Longitude": 100.455019,
            "Provider": "Galvanic"
        },
        {
            "Name": "Lomyen by B-Charge",
            "description": "CCS2: 30 kW, Type2: 22 kW",
            "Name_EN": null,
            "Power": "30 kW",
            "Address": null,
            "Latitude": 17.5933344,
            "Longitude": 100.1304981,
            "Provider": "Galvanic"
        },
        {
            "Name": "M Station",
            "description": "2x CCS2: 120 kW",
            "Name_EN": null,
            "Power": "120 kW",
            "Address": " 10250",
            "Latitude": 13.708183,
            "Longitude": 100.614503,
            "Provider": "Galvanic"
        },
        {
            "Name": "Photon EV Charging Station",
            "description": "6x CCS2: 120 kW",
            "Name_EN": null,
            "Power": "120 kW",
            "Address": " 40000",
            "Latitude": 16.459331,
            "Longitude": 102.770029,
            "Provider": "Galvanic"
        },
        {
            "Name": "PT-S.Yingcharoengas by B-Charge",
            "description": "CCS2: 15 kW, Type2: 7 kW",
            "Name_EN": null,
            "Power": "15 kW",
            "Address": null,
            "Latitude": 13.7751807,
            "Longitude": 100.2186098,
            "Provider": "Galvanic"
        },
        {
            "Name": "SIAM TECHNOLOGY COLLEGE DC",
            "description": "2x CCS2: 120 kW",
            "Name_EN": null,
            "Power": "120 kW",
            "Address": " 10600",
            "Latitude": 13.737744,
            "Longitude": 100.471272,
            "Provider": "Galvanic"
        },
        {
            "Name": "Station-charge.com",
            "description": "CCS2: 30 kW",
            "Name_EN": null,
            "Power": "30 kW",
            "Address": null,
            "Latitude": 13.8342528,
            "Longitude": 100.6362284,
            "Provider": "Galvanic"
        },
        {
            "Name": "WattBuddy@Amphawa Caza Platuu by B-Charge",
            "description": "CCS2: 30 kW, Type2: 22 kW",
            "Name_EN": null,
            "Power": "30 kW",
            "Address": null,
            "Latitude": 13.4260013,
            "Longitude": 99.9998802,
            "Provider": "Galvanic"
        },
        {
            "Name": "ซีทีเอ็มเอส เทคโนโลยี",
            "description": "2x CCS2: 40 kW, 4x CCS2: 60 kW, 4x Type2: 22 kW, Type2: 7 kW",
            "Name_EN": null,
            "Power": "142 kW",
            "Address": "19/8 หมู่่ที่ 12 ซอย ลำลูกกา 12 ตำบล คูคต อำเภอ ลำลูกกา จังหวัด ปทุมธานี 12130",
            "Latitude": 13.94610338,
            "Longitude": 100.6408109,
            "Provider": "Galvanic"
        },
        {
            "Name": "บี-ชาร์จ",
            "description": "CCS2: 60 kW, Type2: 22 kW",
            "Name_EN": null,
            "Power": "60 kW",
            "Address": null,
            "Latitude": 13.694951,
            "Longitude": 100.677935,
            "Provider": "Galvanic"
        },
        {
            "Name": "วิทยาลัยเทคนิคพนมสารคาม",
            "description": "CCS2: 50 kW, CHAdeMO: 50 kW, Type2: 22 kW",
            "Name_EN": null,
            "Power": "50 kW",
            "Address": "401 หมู่่ที่ 3 ตำบล เกาะขนุน อำเภอ พนมสารคาม จังหวัด ฉะเชิงเทรา 24120",
            "Latitude": 13.713209,
            "Longitude": 101.383258,
            "Provider": "Galvanic"
        },
        {
            "Name": "สถานีศิริประภา",
            "description": "CCS2: 30 kW",
            "Name_EN": null,
            "Power": "30 kW",
            "Address": null,
            "Latitude": 13.955996,
            "Longitude": 100.454211,
            "Provider": "Galvanic"
        },
        {
            "Name": "ไอซีเอส",
            "description": "2x CCS2: 47 kW, 2x Type2: 22 kW",
            "Name_EN": null,
            "Power": "47 kW",
            "Address": " 10600",
            "Latitude": 13.7266004162,
            "Longitude": 100.5086578391,
            "Provider": "Galvanic"
        },
        {
            "Name": "EV Coffeehouse",
            "description": "1x CCS2",
            "Name_EN": null,
            "Power": "30 kW",
            "Address": "39, 3, Khao Mai Kaeo, Bang Lamung District, Chon Buri 20150",
            "Latitude": 12.9175691,
            "Longitude": 101.0203671,
            "Provider": "OneCharge"
        }
    ]
}