{
    "providers": "MG",
    "results": [
        {
            "Name": "MG เบส ออโต้ เซลส์ (สาขาพัทยา)",
            "description": null,
            "Power": null,
            "Dealership": "Dealership",
            "Address": "365 หมู่ที่ 3 ตำบลนาจอมเทียน อำเภอสัตหีบ จังหวัดชลบุรี 20250",
            "Latitude": 12.793603,
            "Longitude": 100.917452,
            "Provider": "MG"
        },
        {
            "Name": "MG เซควอญ่า",
            "description": null,
            "Power": null,
            "Dealership": "Dealership",
            "Address": "599 ถนนรามอินทรา แขวงคันนายาว เขตคันนายาว กรุงเทพฯ 10230",
            "Latitude": 13.822372,
            "Longitude": 100.679676,
            "Provider": "MG"
        },
        {
            "Name": "MG เบส ออโต้ เซลส์ (สาขาแม่โจ้)",
            "description": null,
            "Power": null,
            "Dealership": "Dealership",
            "Address": "555 หมู่ที่ 6 ตำบลหนองจ๊อม อำเภอสันทราย จังหวัดเชียงใหม่ 50210",
            "Latitude": 18.85216318,
            "Longitude": 99.01422188,
            "Provider": "MG"
        },
        {
            "Name": "MG เบส ออโต้ เซลส์ (สาขาชลบุรี)",
            "description": null,
            "Power": null,
            "Dealership": "Dealership",
            "Address": "191 หมู่ที่ 3 ถนนบายพาส ตำบลบ้านสวน อำเภอเมือง จังหวัดชลบุรี 20000",
            "Latitude": 13.3313469,
            "Longitude": 100.9817888,
            "Provider": "MG"
        },
        {
            "Name": "MG พรีเมียร์ ออโต้ โมบิล (สาขากาญจนบุรี)",
            "description": null,
            "Power": null,
            "Dealership": "Dealership",
            "Address": "65/7 ถนนแสงชูโต ตำบลท่าล้อ อำเภอท่าม่วง จังหวัดกาญจนบุรี 71110",
            "Latitude": 13.9946842,
            "Longitude": 99.5594613,
            "Provider": "MG"
        },
        {
            "Name": "MG ลักซูรี่ ทุ่งสง",
            "description": null,
            "Power": null,
            "Dealership": "Dealership",
            "Address": "อำเภอทุ่งสง จังหวัดนครศรีธรรมราช",
            "Latitude": 8.17266,
            "Longitude": 99.64062,
            "Provider": "MG"
        },
        {
            "Name": "MG อนันตภัณฑ์ ออโตเซลส์",
            "description": null,
            "Power": null,
            "Dealership": "Dealership",
            "Address": "409 หมู่ที่ 3 ตำบลบ้านเกาะ อำเภอเมืองนครราชสีมา จังหวัดนครราชสีมา 30000",
            "Latitude": 15.010854,
            "Longitude": 102.12567,
            "Provider": "MG"
        },
        {
            "Name": "MG อนันตภัณฑ์ ออโตเซลส์ (สาขาโชคชัย)",
            "description": null,
            "Power": null,
            "Dealership": "Dealership",
            "Address": "298/1 หมู่ที่2 ถนนโชคชัย-เดชอุดม ตำบลโชคชัย อำเภอโชคชัย จังหวัดนครราชสีมา 30190",
            "Latitude": 14.7440258,
            "Longitude": 102.1912126,
            "Provider": "MG"
        },
        {
            "Name": "วีจี คาร์ (สาขานครสวรรค์)",
            "description": null,
            "Power": null,
            "Dealership": "Non-dealership",
            "Address": "1351/2 หมู่ 10 ถนนนครสวรรค์-พิษณุโลก ตำบลนครสวรรค์ตก อำเภอเมือง จังหวัด นครสวรรค์ 60000",
            "Latitude": 15.700716,
            "Longitude": 100.12101,
            "Provider": "MG"
        },
        {
            "Name": "MG ส. อรุณ ออโต้โมบิล",
            "description": null,
            "Power": null,
            "Dealership": "Dealership",
            "Address": "67/3 หมู่ที่ 7 ถนนพหลโยธิน ตำบลกลางแดด อำเภอเมืองนครสวรรค์ จังหวัดนครสวรรค์ 60000",
            "Latitude": 15.64005,
            "Longitude": 100.13326,
            "Provider": "MG"
        },
        {
            "Name": "MG ลักซูรี่ หาดใหญ่ (สาขาพังงา)",
            "description": null,
            "Power": null,
            "Dealership": "Dealership",
            "Address": "4/3 หมู่10 ตำบลโคกกลอย อำเภอตะกั่วทุ่ง จังหวัดพังงา 82130",
            "Latitude": 8.284749,
            "Longitude": 98.306063,
            "Provider": "MG"
        },
        {
            "Name": "MG พัทลุง",
            "description": null,
            "Power": null,
            "Dealership": "Dealership",
            "Address": "60 หมู่ที่ 7 ตำบลแพรกหา อำเภอควนขนุน จังหวัดพัทลุง 93110",
            "Latitude": 7.646118,
            "Longitude": 100.036108,
            "Provider": "MG"
        },
        {
            "Name": "MG ห้างหุ้นส่วน มิตรศิลป์ ออโต้",
            "description": null,
            "Power": null,
            "Dealership": "Dealership",
            "Address": "129 หมู่2 ตำบลบ้านโตก อำเภอเมือง จังหวัดเพชรบูรณ์ 67000",
            "Latitude": 16.3669820808213,
            "Longitude": 101.109222653743,
            "Provider": "MG"
        },
        {
            "Name": "วีจี คาร์ (สาขาพิษณุโลก)",
            "description": null,
            "Power": null,
            "Dealership": "Non-dealership",
            "Address": "273/5-6-7 ถนนพิชัยสงคราม  ตำบลในเมือง อำเภอเมือง จังหวัดพิษณุโลก 65000",
            "Latitude": 16.815393,
            "Longitude": 100.284608,
            "Provider": "MG"
        },
        {
            "Name": "MG แพร่ (2019)",
            "description": null,
            "Power": null,
            "Dealership": "Dealership",
            "Address": "173 หมู่ที่ 7 บ้านสองแคว ถนนยันตรกิจโกศล ตำบล ป่าแมต อำเภอเมืองแพร่ จังหวัดแพร่ 54000",
            "Latitude": 18.1203095,
            "Longitude": 100.1402213,
            "Provider": "MG"
        },
        {
            "Name": "MG ลักซูรี่ หาดใหญ่ (สาขาภูเก็ต)",
            "description": null,
            "Power": null,
            "Dealership": "Dealership",
            "Address": "108/2 หมู่5 ตำบลรัษฎา อำเภอเมือง จังหวัดภูเก็ต 83000",
            "Latitude": 7.917943,
            "Longitude": 98.369011,
            "Provider": "MG"
        },
        {
            "Name": "MG ดีไลท์",
            "description": null,
            "Power": null,
            "Dealership": "Dealership",
            "Address": "22/9 หมู่ที่ 4 ตำบลทับมา อำเภอเมืองระยอง จังหวัดระยอง 21000",
            "Latitude": 12.7044203,
            "Longitude": 101.2432298,
            "Provider": "MG"
        },
        {
            "Name": "MG บีเคเค ยูไนเต็ด สระแก้ว",
            "description": null,
            "Power": null,
            "Dealership": "Dealership",
            "Address": "362  ถนนสุวรรณศร ตำบลสระแก้ว อำเภอเมือง จังหวัดสระแก้ว 27000",
            "Latitude": 13.8089138884709,
            "Longitude": 102.0804,
            "Provider": "MG"
        },
        {
            "Name": "MG วัชรเซลส์ แอนด์ เซอร์วิส",
            "description": null,
            "Power": null,
            "Dealership": "Dealership",
            "Address": "111 หมู่ 10 ตำบลหนองยาว อำเภอเมือง จังหวัดสระบุรี 18000",
            "Latitude": 14.4810270517831,
            "Longitude": 100.912035119649,
            "Provider": "MG"
        },
        {
            "Name": "MG คิงส์คชา",
            "description": null,
            "Power": null,
            "Dealership": "Dealership",
            "Address": "1030,1030/1-2  หมู่ที่ 4 ตำบลคลองขุด อำเภอเมือง จังหวัดสตูล 91000",
            "Latitude": 6.646659,
            "Longitude": 100.074723,
            "Provider": "MG"
        },
        {
            "Name": "MG ที ออโต้",
            "description": null,
            "Power": null,
            "Dealership": "Dealership",
            "Address": "93 หมู่ที่ 4 ตำบลบางมัญ อำเภอเมืองสิงห์บุรี จังหวัดสิงห์บุรี 16000",
            "Latitude": 14.924654,
            "Longitude": 100.397961,
            "Provider": "MG"
        },
        {
            "Name": "MG ลักซูรี่หาดใหญ่ (สำนักงานใหญ่)",
            "description": null,
            "Power": null,
            "Dealership": "Dealership",
            "Address": "88 หมู่ที่ 7 ตำบลท่าช้าง อำเภอบางกล่ำ จังหวัดสงขลา 90110",
            "Latitude": 7.023743,
            "Longitude": 100.439731,
            "Provider": "MG"
        },
        {
            "Name": "MG ลักซูรี่ หาดใหญ่ (สาขาเมืองสงขลา)",
            "description": null,
            "Power": null,
            "Dealership": "Dealership",
            "Address": "88/88 ถนนกาญจนวณิช หมู่1 ตำบลพะวง อำเภอเมืองสงขลา จังหวัดสงขลา 90100",
            "Latitude": 7.140857,
            "Longitude": 100.588405,
            "Provider": "MG"
        },
        {
            "Name": "MG สุโขทัย",
            "description": null,
            "Power": null,
            "Dealership": "Dealership",
            "Address": "88 หมู่ 4 ตำบลบ้านหลุม อำเภอเมือง จังหวัดสุโขทัย 64000",
            "Latitude": 17.0168740723499,
            "Longitude": 99.8532269120182,
            "Provider": "MG"
        },
        {
            "Name": "MG ลักซูรี่ หาดใหญ่ (สาขาสุราษฎร์ธานี)",
            "description": null,
            "Power": null,
            "Dealership": "Dealership",
            "Address": "168 หมู่ที่ 1 ตำบลวัดประดู่ อำเภอเมืองสุราษฎร์ธานี จังหวัดสุราษฎร์ธานี 84000",
            "Latitude": 9.123634,
            "Longitude": 99.282694,
            "Provider": "MG"
        },
        {
            "Name": "MG มิตรแท้ มอเตอร์",
            "description": null,
            "Power": null,
            "Dealership": "Dealership",
            "Address": "8/11 หมู่1 ถนนเลี่ยงเมือง ตำบลบางกุ้ง อำเภอเมืองสุราษฎร์ธานี จังหวัดสุราษฎร์ธานี 84000",
            "Latitude": 9.145768,
            "Longitude": 99.366376,
            "Provider": "MG"
        },
        {
            "Name": "MG ดุสิต มอเตอร์ (สาขาตรัง)",
            "description": null,
            "Power": null,
            "Dealership": "Dealership",
            "Address": "62/11 หมู่4 ถนนตรัง-ปะเหลียน ตำบลบ้านควน อำเภอเมือง จังหวัดตรัง 92000",
            "Latitude": 7.535016,
            "Longitude": 99.620886,
            "Provider": "MG"
        },
        {
            "Name": "MG แพร่ยนตรการ เซลส์ แอนด์ เซอร์วิส (สาขาอุตรดิตถ์)",
            "description": null,
            "Power": null,
            "Dealership": "Dealership",
            "Address": "168/1 หมู่ที่1 ตำบลหาดกรวด อำเภอเมืองอุตรดิตถ์ จังหวัดอุตรดิตถ์ 53000",
            "Latitude": 17.5727648,
            "Longitude": 100.1500462,
            "Provider": "MG"
        },
        {
            "Name": "MG เอ.เอส.กรุ๊ป (สุรินทร์)",
            "description": null,
            "Power": null,
            "Dealership": "Dealership",
            "Address": "286 หมู่ที่ 9 ถนนสายกระสัง ตำบลคอโค อำเภอเมือง จังหวัดสุรินทร์ 32000",
            "Latitude": 14.890784,
            "Longitude": 103.422627,
            "Provider": "MG"
        },
        {
            "Name": "MG ศรีเมืองยนต์ศรีสะเกษ",
            "description": null,
            "Power": null,
            "Dealership": "Dealership",
            "Address": "130 หมู่ที่ 6 ตำบลโพธิ์ อำเภอเมือง จังหวัดศรีสะเกษ 33000",
            "Latitude": 15.1061387,
            "Longitude": 104.3790188,
            "Provider": "MG"
        },
        {
            "Name": "เอเลแกนซ์ วีฮีเคิล",
            "description": null,
            "Power": null,
            "Dealership": "Non-dealership",
            "Address": "99/9 หมู่ที่ 3 ถนนกรุงเทพฯ-ปทุมธานี ตำบลบ้านฉาง อำเภอเมืองปทุมธานี จังหวัดปทุมธานี 12000",
            "Latitude": 14.007025,
            "Longitude": 100.521757,
            "Provider": "MG"
        },
        {
            "Name": "MG อารีมิตร  (สาขาขอนแก่น)",
            "description": null,
            "Power": null,
            "Dealership": "Dealership",
            "Address": "199 หมู่ 16 ถนนมะลิวัลย์ ตำบลบ้านเป็ด อำเภอเมือง จังหวัดขอนแก่น 40000",
            "Latitude": 16.4440922,
            "Longitude": 102.8009193,
            "Provider": "MG"
        },
        {
            "Name": "MG เบส ออโต้ เซลส์ (สาขาหางดง)",
            "description": null,
            "Power": null,
            "Dealership": "Dealership",
            "Address": "107 หมู่ที่ 7 ตำบลป่าแดด อำเภอเมือง จังหวัดเชียงใหม่ 50100",
            "Latitude": 18.744207656549,
            "Longitude": 98.9769236329004,
            "Provider": "MG"
        },
        {
            "Name": "MG ชัยภูมิ",
            "description": null,
            "Power": null,
            "Dealership": "Dealership",
            "Address": "199 หมู่ที่7 ตำบลหนองนาแซง อำเภอเมือง จังหวัดชัยภูมิ 36000",
            "Latitude": 15.754203,
            "Longitude": 102.023158,
            "Provider": "MG"
        },
        {
            "Name": "MG บูรพา",
            "description": null,
            "Power": null,
            "Dealership": "Dealership",
            "Address": "88 หมู่ 6 ตำบลโสธร อำเภอเมือง จังหวัดฉะเชิงเทรา 24000",
            "Latitude": 13.693802561742,
            "Longitude": 101.050996233573,
            "Provider": "MG"
        },
        {
            "Name": "MG ระยอง",
            "description": null,
            "Power": null,
            "Dealership": "Dealership",
            "Address": "558/1 ถนนสุขุวิท ตำบลเนินพระ อำเภอเมือง จังหวัดระยอง 21000",
            "Latitude": 12.683599,
            "Longitude": 101.246678,
            "Provider": "MG"
        },
        {
            "Name": "MG พระนคร (ถนนกาญจนาภิเษก)",
            "description": null,
            "Power": null,
            "Dealership": "Dealership",
            "Address": "612 ถนนกาญจนาภิเษก แขวงบางไผ่ เขตบางแค กรุงเทพฯ 10160",
            "Latitude": 13.7366826,
            "Longitude": 100.4063373,
            "Provider": "MG"
        },
        {
            "Name": "MG นครหลวง (สำนักงานใหญ่)",
            "description": null,
            "Power": null,
            "Dealership": "Dealership",
            "Address": "129/39 หมู่ที่ 4 ถนนบางนา-ตราด ตำบลบางโฉลง อำเภอบางพลี จังหวัดสมุทรปราการ 10540",
            "Latitude": 13.629698,
            "Longitude": 100.719819,
            "Provider": "MG"
        },
        {
            "Name": "MG เอ.เอ็น.เอ็น.ออโต้เซลส์ (2016)",
            "description": null,
            "Power": null,
            "Dealership": "Dealership",
            "Address": "1173 ถนนสิโรรส ตำบลสะเตง อำเภอเมืองยะลา จังหวัดยะลา 95000",
            "Latitude": 6.57653854,
            "Longitude": 101.29883875,
            "Provider": "MG"
        },
        {
            "Name": "พี.ที. เจริญธุรกิจ (ปัตตานี)",
            "description": null,
            "Power": null,
            "Dealership": "Non-dealership",
            "Address": "80 หมู่ที่ 1 ตำบลปะกาฮะรัง อำเภอเมือง จังหวัดปัตตานี 94000",
            "Latitude": 6.851898,
            "Longitude": 101.249645,
            "Provider": "MG"
        },
        {
            "Name": "MG เอ.เอ็น.เอ็น.ออโต้เซลส์ (2016) (สาขานราธิวาส)",
            "description": null,
            "Power": null,
            "Dealership": "Dealership",
            "Address": "280-280/4 ถนนสุริยะประดิษฐ์ ตำบลบางนาค อำเภอเมือง จังหวัดนราธิวาส 96000",
            "Latitude": 6.4158773595764,
            "Longitude": 101.810631540148,
            "Provider": "MG"
        },
        {
            "Name": "MG เพนต้า พี ออโตเซลส์",
            "description": null,
            "Power": null,
            "Dealership": "Dealership",
            "Address": "129/1 ถนนเทวาภิบาล ตำบลในเมือง อำเภอเมืองร้อยเอ็ด จังหวัดร้อยเอ็ด 45000",
            "Latitude": 16.054557,
            "Longitude": 103.64266,
            "Provider": "MG"
        },
        {
            "Name": "MG ช.เอราวัณ ออโตโมบิล นครปฐม",
            "description": null,
            "Power": null,
            "Dealership": "Dealership",
            "Address": "199 หมู่ 1 ถนนเพชรเกษม ตำบลธรรมศาลา อำเภอเมืองนครปฐม จังหวัดนครปฐม 73000",
            "Latitude": 13.811987,
            "Longitude": 100.119322,
            "Provider": "MG"
        },
        {
            "Name": "MG ภูเก็ตปิยะ",
            "description": null,
            "Power": null,
            "Dealership": "Dealership",
            "Address": "5/2 หมู่3 ถนนเทพกษัตรี ตำบลรัชดา อำเภอเมืองภูเก็ต จังหวัดภูเก็ต 83000",
            "Latitude": 7.90744,
            "Longitude": 98.39081,
            "Provider": "MG"
        },
        {
            "Name": "โรงแรมประจวบสามอ่าว",
            "description": null,
            "Power": null,
            "Dealership": "Non-dealership",
            "Address": null,
            "Latitude": 11.794793,
            "Longitude": 99.774254,
            "Provider": "MG"
        },
        {
            "Name": "MG เบส ออโต้ เซลส์ (สาขาเชียงใหม่)",
            "description": null,
            "Power": null,
            "Dealership": "Dealership",
            "Address": "4/9 ถนนมหิดล ตำบลป่าแดด อำเภอเมือง จังหวัดเชียงใหม่ 50100",
            "Latitude": 18.767945,
            "Longitude": 98.980497,
            "Provider": "MG"
        },
        {
            "Name": "MG ศรีเมืองยนต์อุบล",
            "description": null,
            "Power": null,
            "Dealership": "Dealership",
            "Address": "92 หมู่ที่ 19 ตำบลขามใหญ่ อำเภอเมือง จังหวัดอุบลราชธานี 34000",
            "Latitude": 15.3035,
            "Longitude": 104.837722,
            "Provider": "MG"
        },
        {
            "Name": "MG แอล.เค.เอส. ลำนารายณ์",
            "description": null,
            "Power": null,
            "Dealership": "Dealership",
            "Address": "59/2 หมู่ที่ 1 ตำบลชัยนารายณ์ อำเภอชัยบาดาล จังหวัดลพบุรี 15130",
            "Latitude": 15.21224,
            "Longitude": 101.12126,
            "Provider": "MG"
        },
        {
            "Name": "MG ออโต้ แกลเลอรี่ ไดนามิค (สาขาหัวหิน)",
            "description": null,
            "Power": null,
            "Dealership": "Dealership",
            "Address": "2/259 ซอยหมู่บ้านหนองแก ถนนเพชรเกษม ตำบลหนองแก อำเภอหัวหิน จังหวัดประจวบคีรีขันธ์ 77110",
            "Latitude": 12.55232,
            "Longitude": 99.961906,
            "Provider": "MG"
        },
        {
            "Name": "MG ชลบุรี ออโต้เซลส์",
            "description": null,
            "Power": null,
            "Dealership": "Dealership",
            "Address": "6/10 หมู่ 6 ตำบลบ่อวิน อำเภอศรีราชา จังหวัดชลบุรี 20230",
            "Latitude": 13.055799,
            "Longitude": 101.09723,
            "Provider": "MG"
        },
        {
            "Name": "MG กรุงเทพ",
            "description": null,
            "Power": null,
            "Dealership": "Dealership",
            "Address": "89 หมู่ 8 ถนนสุวินทวงศ์ แขวงโคกแฝด เขตหนองจอก กรุงเทพมหานคร 10530",
            "Latitude": 13.80984,
            "Longitude": 100.805236,
            "Provider": "MG"
        },
        {
            "Name": "MG อุดรธานี (สาขาบายพาส)",
            "description": null,
            "Power": null,
            "Dealership": "Dealership",
            "Address": "99 หมู่ 5 ซอยบ้านดงอุดม ตำบลหมากแข้ง อำเภอเมืองอุดรธานี จังหวัดอุดรธานี 41000",
            "Latitude": 17.410495,
            "Longitude": 102.817484,
            "Provider": "MG"
        },
        {
            "Name": "MG พิจิตรเพชร หนองคาย",
            "description": null,
            "Power": null,
            "Dealership": "Dealership",
            "Address": "199 หมู่ 2 ถนนมิตรภาพ ตำบลโพธิ์ชัย  อำเภอเมือง จังหวัดหนองคาย 43000",
            "Latitude": 17.836756,
            "Longitude": 102.754242,
            "Provider": "MG"
        },
        {
            "Name": "โรงแรมดิอิมเพลส น่าน",
            "description": null,
            "Power": null,
            "Dealership": "Non-dealership",
            "Address": "99 หมู่ 4 ถนนยันตรกิจโกศล ตำบลดู่ใต้ อำเภอเมืองน่าน จังหวัดน่าน 55000",
            "Latitude": 18.75920978,
            "Longitude": 100.7612459,
            "Provider": "MG"
        },
        {
            "Name": "MG เคพี ออโต้ คลองหลวง",
            "description": null,
            "Power": null,
            "Dealership": "Dealership",
            "Address": "96/63 หมู่ที่ 7 ตำบลคลองสอง อำเภอคลองหลวง จังหวัดปทุมธานี 12120",
            "Latitude": 14.065101,
            "Longitude": 100.633998,
            "Provider": "MG"
        },
        {
            "Name": "MG พารากอน เซลล์",
            "description": null,
            "Power": null,
            "Dealership": "Dealership",
            "Address": "5/48 ถนนสายไหม แขวงสายไหม เขตสายไหม กรุงเทพฯ 10220",
            "Latitude": 13.921228,
            "Longitude": 100.657312,
            "Provider": "MG"
        },
        {
            "Name": "MG ล้านนา (สาขาพะเยา)",
            "description": null,
            "Power": null,
            "Dealership": "Dealership",
            "Address": "413/2 ถนนพหลโยธิน ตำบลแม่ต๋ำ อำเภอเมือง จังหวัดพะเยา 56000",
            "Latitude": 19.1532058592303,
            "Longitude": 99.9132485018341,
            "Provider": "MG"
        },
        {
            "Name": "MG ล้านนา (สาขาเชียงราย)",
            "description": null,
            "Power": null,
            "Dealership": "Dealership",
            "Address": "111/21-22 หมู่ที่13 ถนนพหลโยธิน ตำบลสันทราย อำเภอเมือง จังหวัดเชียงราย 57000",
            "Latitude": 19.8788165,
            "Longitude": 99.8331808,
            "Provider": "MG"
        },
        {
            "Name": "MG วิชช์ มอเตอร์ส",
            "description": null,
            "Power": null,
            "Dealership": "Dealership",
            "Address": "333/33 ถนนประดิษฐ์มนูธรรม แขวงวังทองหลาง เขตวังทองหลาง กรุงเทพฯ 10310",
            "Latitude": 13.784151,
            "Longitude": 100.607481,
            "Provider": "MG"
        },
        {
            "Name": "MG ช.เอราวัณ ออโตโมบิล ราชบุรี",
            "description": null,
            "Power": null,
            "Dealership": "Dealership",
            "Address": "19/1 หมู่ 5 ถนนเพชรเกษม ตำบลสามเรือน อำเภอเมืองราชบุรี จังหวัดราชบุรี  70000",
            "Latitude": 13.613062,
            "Longitude": 99.839137,
            "Provider": "MG"
        },
        {
            "Name": "ศูนย์เทคโนโลยีไมโครอิเล็กทรอนิกส์ (TMEC)",
            "description": null,
            "Power": null,
            "Dealership": "Non-dealership",
            "Address": "51/4 หมู่ 1 ตำบลวังตะเคียน อำเภอเมือง จังหวัดฉะเชิงเทรา 24000",
            "Latitude": 13.740348,
            "Longitude": 101.015562,
            "Provider": "MG"
        },
        {
            "Name": "สำนักงานพัฒนาวิทยาศาสตร์และเทคโนโลยีแห่งชาติ (สวทช.)",
            "description": null,
            "Power": null,
            "Dealership": "Non-dealership",
            "Address": "111 อุทยานวิทยาศาสตร์ประเทศไทย ถนนพหลโยธิน ตำบลคลองหนึ่ง อำเภอคลองหลวง จังหวัดปทุมธานี 12120",
            "Latitude": 14.078291,
            "Longitude": 100.604027,
            "Provider": "MG"
        },
        {
            "Name": "สำนักงานพัฒนาวิทยาศาสตร์และเทคโนโลยีแห่งชาติ (สวทช.) – โยธี",
            "description": null,
            "Power": "24 kW",
            "Dealership": "Non-dealership",
            "Address": "73/1 ถนนพระรามที่ 6 แขวงทุ่งพญาไท เขตราชเทวี กรุงเทพฯ 10400",
            "Latitude": 13.763949,
            "Longitude": 100.526989,
            "Provider": "MG"
        },
        {
            "Name": "MG พิจิตรเพชรออโต้",
            "description": null,
            "Power": null,
            "Dealership": "Dealership",
            "Address": "370 หมู่ที่ 1 ถนนบึงกาฬ-พังโคน ตำบลบึงกาฬ อำเภอเมืองบึงกาฬ จังหวัดบึงกาฬ 38000",
            "Latitude": 18.376354,
            "Longitude": 103.631772,
            "Provider": "MG"
        },
        {
            "Name": "ไลม์ไลท์อเวนิว",
            "description": null,
            "Power": "50 kW",
            "Dealership": "Non-dealership",
            "Address": "2/23 ถนนดีบุก ตำบลตลาดใหญ่ อำเภอเมืองภูเก็ต จังหวัดภูเก็ต 83000",
            "Latitude": 7.88623,
            "Longitude": 98.39179,
            "Provider": "MG"
        },
        {
            "Name": "ดับเบิลทรี บาย ฮิลตัน ภูเก็ต บ้านไทยรีสอร์ต",
            "description": null,
            "Power": null,
            "Dealership": "Non-dealership",
            "Address": "94 ถนนทวีวงศ์ ตำบลป่าตอง อำเภอกะทู้ จังหวัดภูเก็ต 83150",
            "Latitude": 7.890781,
            "Longitude": 98.294715,
            "Provider": "MG"
        },
        {
            "Name": "MG บางปูแลนด์ แอนด์ ออโต้โมบิล",
            "description": null,
            "Power": null,
            "Dealership": "Dealership",
            "Address": "99/9 หมู่ที่ 2 ตำบลท้ายบ้าน อำเภอเมืองสมุทรปราการ จังหวัดสมุทรปราการ 10280",
            "Latitude": 13.5626805553399,
            "Longitude": 100.609919450263,
            "Provider": "MG"
        },
        {
            "Name": "MG รุ่งเจริญ (สาขามหาชัย)",
            "description": null,
            "Power": null,
            "Dealership": "Dealership",
            "Address": "12/2 หมู่ที่ 4 ตำบลนาดี อำเภอเมืองสมุทรสาคร จังหวัดสมุทรสาคร 74000",
            "Latitude": 13.5708951484896,
            "Longitude": 100.289012383461,
            "Provider": "MG"
        },
        {
            "Name": "MG รุ่งเจริญ (สาขาสุขสวัสดิ์)",
            "description": null,
            "Power": null,
            "Dealership": "Dealership",
            "Address": "123 หมู่ที่ 2 ถนนสุขสวัสดิ์ ตำบลในคลองบางปลากด  อำเภอพระสมุทรเจดีย์ จังหวัดสมุทรปราการ 10290",
            "Latitude": 13.593428,
            "Longitude": 100.572095,
            "Provider": "MG"
        },
        {
            "Name": "MG สกาย ออโต้โมทีฟ (สาขาสิรินธร)",
            "description": null,
            "Power": null,
            "Dealership": "Dealership",
            "Address": "346 ถนนสิรินธร แขวงบางพลัด เขตบางพลัด กรุงเทพมหานคร 10700",
            "Latitude": 13.790375,
            "Longitude": 100.476237,
            "Provider": "MG"
        },
        {
            "Name": "MG เคเอเอส มอเตอร์ส",
            "description": null,
            "Power": null,
            "Dealership": "Dealership",
            "Address": "804 ถนนจรัญสนิทวงศ์ แขวงบางอ้อ เขตบางพลัด กรุงเทพมหานคร 10700",
            "Latitude": 13.8063947907318,
            "Longitude": 100.512433057991,
            "Provider": "MG"
        },
        {
            "Name": "โรมแรมอะตอมภูเก็ต",
            "description": null,
            "Power": "24 kW",
            "Dealership": "Non-dealership",
            "Address": "127 ม.1 ต.สาคู อ.ถลาง จ.ภูเก็ต 83110",
            "Latitude": 8.095443,
            "Longitude": 98.306877,
            "Provider": "MG"
        },
        {
            "Name": "MG ทริปเปิล ที มอเตอร์ (เชียงใหม่)",
            "description": null,
            "Power": null,
            "Dealership": "Dealership",
            "Address": "104 หมู่ที่ 1 ถนนไฮเวย์-ลำปาง ตำบลไชยสถาน อำเภอสารภี จังหวัดเชียงใหม่ 50140",
            "Latitude": 18.727518,
            "Longitude": 99.040228,
            "Provider": "MG"
        },
        {
            "Name": "MG ลพบุรี",
            "description": null,
            "Power": null,
            "Dealership": "Dealership",
            "Address": "99/9 หมู่ที่2 ตำบลนิคมสร้างตนเอง อำเภอเมืองลพบุรี จังหวัดลพบุรี 15000",
            "Latitude": 14.769917,
            "Longitude": 100.704861,
            "Provider": "MG"
        },
        {
            "Name": "MG สุพรีม",
            "description": null,
            "Power": null,
            "Dealership": "Dealership",
            "Address": "1640 ถนนอ่อนนุช แขวงอ่อนนุช เขตสวนหลวง กรุงเทพมหานคร 10250",
            "Latitude": 13.71056,
            "Longitude": 100.63478,
            "Provider": "MG"
        },
        {
            "Name": "MG แสงอารี ออโต้ (สาขาหทัยราษฎร์)",
            "description": null,
            "Power": null,
            "Dealership": "Dealership",
            "Address": "เลขที่ 251 ถนนหทัยราษฎร์ แขวงสามวาตะวันตก เขตคลองสามวา กรุงเทพมหานคร 10510",
            "Latitude": 13.868622,
            "Longitude": 100.722352,
            "Provider": "MG"
        },
        {
            "Name": "MG ทริปเปิ้ลเอ็มออโต้เซลส์",
            "description": null,
            "Power": null,
            "Dealership": "Dealership",
            "Address": "776/1 ถ.รัชดาภิเษก (ท่าพระ-ตากสิน) แขวงดาวคะนอง เขตธนบุรี กรุงเทพมหานคร 10600",
            "Latitude": 13.70591,
            "Longitude": 100.48288,
            "Provider": "MG"
        },
        {
            "Name": "MG อาร์เฮงวัฒนา",
            "description": null,
            "Power": null,
            "Dealership": "Dealership",
            "Address": "89/1 หมู่ที่12 ถนนมิตรภาพ ตำบลในเมือง อำเภอเมือง จังหวัดขอนแก่น 40000",
            "Latitude": 16.3942092962111,
            "Longitude": 102.812523538486,
            "Provider": "MG"
        },
        {
            "Name": "MG ลักซูรี่ นครศรีธรรมราช สำนักงานใหญ่ (พระพรหม)",
            "description": null,
            "Power": null,
            "Dealership": "Dealership",
            "Address": "174 หมู่13 ตำบลช้างซ้าย อำเภอพระพรหม จังหวัดนครศรีธรรมราช 80000",
            "Latitude": 8.3705776,
            "Longitude": 99.948794,
            "Provider": "MG"
        },
        {
            "Name": "MG พิจิตรเพชร สกลนคร",
            "description": null,
            "Power": null,
            "Dealership": "Dealership",
            "Address": "343 ถนนสกลนคร-กาฬสินธุ์ ตำบลธาตุเชิงชุม อำเภอเมือง จังหวัดสกลนคร 47000",
            "Latitude": 17.1468055,
            "Longitude": 104.1276321,
            "Provider": "MG"
        },
        {
            "Name": "MG นครราชสีมา",
            "description": null,
            "Power": null,
            "Dealership": "Dealership",
            "Address": "2300 ถนนมิตรภาพ ตำบลในเมือง อำเภอเมือง จังหวัดนครราชสีมา 30000",
            "Latitude": 14.960703,
            "Longitude": 102.0597629,
            "Provider": "MG"
        },
        {
            "Name": "MG ดุสิต ออโต้โมบิล",
            "description": null,
            "Power": null,
            "Dealership": "Dealership",
            "Address": "56/6 ถนนศรีพังงา ตำบลกระบี่ใหญ่ อำเภอเมืองกระบี่ จังหวัดกระบี่ 81000",
            "Latitude": 8.102991,
            "Longitude": 98.891534,
            "Provider": "MG"
        },
        {
            "Name": "MG ร่วมใจเมืองเลย (สาขาด่านซ้าย)",
            "description": null,
            "Power": null,
            "Dealership": "Dealership",
            "Address": "698 หมู่ 3 ตำบลด่านซ้าย อำเภอด่านซ้าย จังหวัดเลย 42120",
            "Latitude": 17.27468,
            "Longitude": 101.15544,
            "Provider": "MG"
        },
        {
            "Name": "MG ปราจีนบุรี ออโต้เซลส์",
            "description": null,
            "Power": null,
            "Dealership": "Dealership",
            "Address": "88 หมู่ที่9 ถนนสุวินทวงศ์ ตำบลบ้านพระ อำเภอเมือง จังหวัดปราจีนบุรี 25230",
            "Latitude": 14.08147269,
            "Longitude": 101.3512035,
            "Provider": "MG"
        },
        {
            "Name": "ปฐพีทองโคราช (หัวทะเล)",
            "description": null,
            "Power": null,
            "Dealership": "Non-dealership",
            "Address": "1814 หมู่ 1 ตำบลหัวทะเล อำเภอเมืองนครราชสีมา จังหวัดนครราชสีมา 30000",
            "Latitude": 14.956455,
            "Longitude": 102.123717,
            "Provider": "MG"
        },
        {
            "Name": "MG ปฐพีทองออโต้ (ในเมือง)",
            "description": null,
            "Power": null,
            "Dealership": "Dealership",
            "Address": "1196, 1198, 1200 ถนนมิตรภาพ ตำบลในเมือง อำเภอเมืองนครราชสีมา จังหวัดนครราชสีมา 30000",
            "Latitude": 14.97961256,
            "Longitude": 102.081917,
            "Provider": "MG"
        },
        {
            "Name": "MG พรนุภาพ",
            "description": null,
            "Power": null,
            "Dealership": "Dealership",
            "Address": "66/9 หมู่ 3 ถนนเพชรเกษม ตำบลบ้านหม้อ อำเภอเมือง จังหวัดเพชรบุรี 76000",
            "Latitude": 13.091128,
            "Longitude": 99.940602,
            "Provider": "MG"
        },
        {
            "Name": "MG ประจวบคีรีขันธ์ บาย พร้อมพงศ์",
            "description": null,
            "Power": null,
            "Dealership": "Dealership",
            "Address": "17/12 ถนนประจวบคีรีขันธ์ ตำบลประจวบคีรีขันธ์ อำเภอเมืองประจวบคีรีขันธ์ จังหวัดประจวบคีรีขันธ์ 77000",
            "Latitude": 11.8088703,
            "Longitude": 99.77827572,
            "Provider": "MG"
        },
        {
            "Name": "WHA ESIE, Plaza 1",
            "description": null,
            "Power": null,
            "Dealership": "Non-dealership",
            "Address": "24/1 หมู่ที่ 4 ตำบลปลวกแดง อำเภอปลวกแดง จังหวัดระยอง 21140",
            "Latitude": 13.01531043,
            "Longitude": 101.1515885,
            "Provider": "MG"
        },
        {
            "Name": "WHA ESIE, Plaza 2",
            "description": null,
            "Power": null,
            "Dealership": "Non-dealership",
            "Address": "300/7 หมู่ที่ 1 ตำบลตาสิทธิ์ อำเภอปลวกแดง จังหวัดระยอง 21140",
            "Latitude": 13.00664656,
            "Longitude": 101.2027063,
            "Provider": "MG"
        },
        {
            "Name": "WHA ESIE1, Plaza 3",
            "description": null,
            "Power": null,
            "Dealership": "Non-dealership",
            "Address": "121 หมู่ที่ 3 ตำบลตาสิทธิ์ อำเภอปลวกแดง จังหวัดระยอง 21140",
            "Latitude": 13.06903171,
            "Longitude": 101.1849465,
            "Provider": "MG"
        },
        {
            "Name": "WHA ESIE2, WHA City Park",
            "description": null,
            "Power": null,
            "Dealership": "Non-dealership",
            "Address": "475/5 หมู่ที่ 7 ตำบลคลองกิ่ว อำเภอบ้านบึง จังหวัดชลบุรี 20220",
            "Latitude": 13.13131344,
            "Longitude": 101.1649,
            "Provider": "MG"
        },
        {
            "Name": "WHA SIL, Office",
            "description": null,
            "Power": null,
            "Dealership": "Non-dealership",
            "Address": "111 หมู่ 7, ถนนหนองปลากระดี่ อำเภอหนองแค จังหวัดสระบุรี 18140",
            "Latitude": 14.36891414,
            "Longitude": 100.8419205,
            "Provider": "MG"
        },
        {
            "Name": "บางจาก คู่ขนานเอกมัย – รามอินทรา",
            "description": null,
            "Power": "50 kW",
            "Dealership": "Non-dealership",
            "Address": "569 ถนนประดิษฐ์มนูธรรม แขวงลาดพร้าว เขตลาดพร้าว กรุงเทพมหานคร 10230",
            "Latitude": 13.83518,
            "Longitude": 100.63125,
            "Provider": "MG"
        },
        {
            "Name": "บางจาก กาญจนาภิเษก",
            "description": null,
            "Power": null,
            "Dealership": "Non-dealership",
            "Address": "95/3 ถนนกาญจนาภิเษก แขวงบางบอน เขตบางบอน กรุงเทพมหานคร 10150",
            "Latitude": 13.67093,
            "Longitude": 100.40516,
            "Provider": "MG"
        },
        {
            "Name": "บางจาก บรมราชชนนี กม. 10 ขาเข้า",
            "description": null,
            "Power": "50 kW",
            "Dealership": "Non-dealership",
            "Address": "474 ถนนบรมราชชนนี แขวงศาลาธรรมสพน์ เขตทวีวัฒนา กรุงเทพมหานคร 10170",
            "Latitude": 13.787376,
            "Longitude": 100.3713,
            "Provider": "MG"
        },
        {
            "Name": "บางจาก ก้าวไกลแก๊ส",
            "description": null,
            "Power": null,
            "Dealership": "Non-dealership",
            "Address": "698/1 ถนนพระรามที่ 2 แขวงแสมดำ เขตบางขุนเทียน จังหวัดกรุงเทพมหานคร 10150",
            "Latitude": 13.619159,
            "Longitude": 100.385863,
            "Provider": "MG"
        },
        {
            "Name": "บางจาก พัฒนาการ 27",
            "description": null,
            "Power": null,
            "Dealership": "Non-dealership",
            "Address": "1348 ถนนพัฒนาการ แขวงสวนหลวง เขตสวนหลวง กรุงเทพมหานคร 10250",
            "Latitude": 13.736749,
            "Longitude": 100.617914,
            "Provider": "MG"
        },
        {
            "Name": "บางจาก รามคำแหง 164",
            "description": null,
            "Power": null,
            "Dealership": "Non-dealership",
            "Address": "8/4 ถนนรามคำแหง แขวงมีนบุรี เขตมีนบุรี จังหวัดกรุงเทพมหานคร 10510",
            "Latitude": 13.796889,
            "Longitude": 100.710495,
            "Provider": "MG"
        },
        {
            "Name": "บางจาก ร่มเกล้า",
            "description": null,
            "Power": null,
            "Dealership": "Non-dealership",
            "Address": "179/9 ถนนร่มเกล้า แขวงคลองสามประเวศ เขตลาดกระบัง กรุงเทพมหานคร 10520",
            "Latitude": 13.745626,
            "Longitude": 100.746935,
            "Provider": "MG"
        },
        {
            "Name": "บางจาก ราชพฤกษ์ 2",
            "description": null,
            "Power": null,
            "Dealership": "Non-dealership",
            "Address": "54/11 หมู่ 2 ถนนราชพฤกษ์ ตำบลบางพลับ อำเภอปากเกร็ด จังหวัดนนทบุรี 11120",
            "Latitude": 13.9151,
            "Longitude": 100.45145,
            "Provider": "MG"
        },
        {
            "Name": "บางจาก บางนา – ตราด กม.16",
            "description": null,
            "Power": null,
            "Dealership": "Non-dealership",
            "Address": "4/43 หมู่ที่ 1 ตำบลบางโฉลง อำเภอบางพลี จังหวัดสมุทรปราการ 10540",
            "Latitude": 13.617978,
            "Longitude": 100.745479,
            "Provider": "MG"
        },
        {
            "Name": "บางจาก เสรีไทย",
            "description": null,
            "Power": null,
            "Dealership": "Non-dealership",
            "Address": "131 ถนนเสรีไทย แขวงคลองกุ่ม เขตบึงกุ่ม กรุงเทพมหานคร 10230",
            "Latitude": 13.776675,
            "Longitude": 100.660484,
            "Provider": "MG"
        },
        {
            "Name": "บางจาก สตรีวิทย์ 2",
            "description": null,
            "Power": "50 kW",
            "Dealership": "Non-dealership",
            "Address": "392/1 ถนนสุคนธสวัสดิ์ แขวงลาดพร้าว เขตลาดพร้าว กรุงเทพมหานคร 10230",
            "Latitude": 13.825431,
            "Longitude": 100.619851,
            "Provider": "MG"
        },
        {
            "Name": "บางจาก ศรีนครินทร์",
            "description": null,
            "Power": null,
            "Dealership": "Non-dealership",
            "Address": "887 หมู่ที่ 5 ตำบลสำโรงเหนือ อำเภอเมืองสมุทรปราการ จังหวัดสมุทรปราการ 10270",
            "Latitude": 13.650875,
            "Longitude": 100.640145,
            "Provider": "MG"
        },
        {
            "Name": "MG แอ๊นท์ (2019)",
            "description": null,
            "Power": "50 kW",
            "Dealership": "Dealership",
            "Address": "99/99 หมู่ 13 ถนนกาญจนาภิเษก ตำบลบางบัวทอง อำเภอบางบัวทอง จังหวัดนนทบุรี 11110",
            "Latitude": 13.932022,
            "Longitude": 100.414721,
            "Provider": "MG"
        },
        {
            "Name": "MG รุ่งเจริญ (สาขานวมินทร์)",
            "description": null,
            "Power": null,
            "Dealership": "Dealership",
            "Address": "24/99 ถนนนวมินทร์ แขวงคลองกุ่ม เขตบึงกุ่ม กรุงเทพมหานคร 10240",
            "Latitude": 13.819602159594,
            "Longitude": 100.654705377193,
            "Provider": "MG"
        },
        {
            "Name": "MG รุ่งเจริญ (สาขาฉะเชิงเทรา)",
            "description": null,
            "Power": null,
            "Dealership": "Dealership",
            "Address": "42 หมู่ 5 ตำบลบางพระ อำเภอเมืองฉะเชิงเทรา จังหวัดฉะเชิงเทรา 24000",
            "Latitude": 13.65894,
            "Longitude": 101.05746,
            "Provider": "MG"
        },
        {
            "Name": "MG ทริปเปิล ที มอเตอร์ (ลำปาง)",
            "description": null,
            "Power": null,
            "Dealership": "Dealership",
            "Address": "449 หมู่ที่ 1 ตำบลชมพู อำเภอเมือง จังหวัดลำปาง 52100",
            "Latitude": 18.25383,
            "Longitude": 99.45686,
            "Provider": "MG"
        },
        {
            "Name": "MG เบส ออโต้ เซลส์ (สาขาอมตะนคร)",
            "description": null,
            "Power": null,
            "Dealership": "Dealership",
            "Address": "82 หมู่ที่ 6 ถนนบ้านเก่า5 ตำบลดอนหัวฬ่อ อำเภอเมือง จังหวัดชลบุรี 20000",
            "Latitude": 13.442421,
            "Longitude": 101.030155,
            "Provider": "MG"
        },
        {
            "Name": "MG ส.อรุณ ออโต้โมบิล (สาขาพิษณุโลก)",
            "description": null,
            "Power": null,
            "Dealership": "Dealership",
            "Address": "36/2 หมู่ที่ 4 ตำบลสมอแข อำเภอเมืองพิษณุโลก จังหวัดพิษณุโลก 65000",
            "Latitude": 16.83091855,
            "Longitude": 100.3610766,
            "Provider": "MG"
        },
        {
            "Name": "วี.จี. คาร์ (สาขากระบี่)",
            "description": null,
            "Power": null,
            "Dealership": "Non-dealership",
            "Address": "60 Moo 2, Petchkasem Rd., Krabinoi Sub-District, Muang Krabi District, Krabi Province 81000",
            "Latitude": 6.415738,
            "Longitude": 101.810615,
            "Provider": "MG"
        },
        {
            "Name": "MG พัทยา ออโต้เฮ้าส์",
            "description": null,
            "Power": null,
            "Dealership": "Dealership",
            "Address": "16/119 หมู่ที่ 8 ถนนสุขุมวิท ตำบลหนองปลาไหล อำเภอบางละมุง จังหวัดชลบุรี 20150",
            "Latitude": 12.986883,
            "Longitude": 100.923526,
            "Provider": "MG"
        },
        {
            "Name": "MG เอเบิล มอเตอร์ส",
            "description": null,
            "Power": null,
            "Dealership": "Dealership",
            "Address": "88 หมู่ 5 ถนนบางบัวทอง-บางพูน(ซ่อมสร้าง) ตำบลบางพูน อำเภอเมืองปทุมธานี จังหวัดปทุมธานี 12000",
            "Latitude": 13.975671,
            "Longitude": 100.57933,
            "Provider": "MG"
        },
        {
            "Name": "บางจาก อ่อนนุช 55",
            "description": null,
            "Power": null,
            "Dealership": "Non-dealership",
            "Address": "287/3 ถนนอ่อนนุช แขวงประเวศ เขตประเวศ จังหวัดกรุงเทพมหานคร 10250",
            "Latitude": 13.71824,
            "Longitude": 100.662849,
            "Provider": "MG"
        },
        {
            "Name": "บางจาก บางนา – ตราด กม. 22",
            "description": null,
            "Power": null,
            "Dealership": "Non-dealership",
            "Address": "46/1 หมู่ที่ 1 ตำบลศรีษะจรเข้ใหญ่ อำเภอบางเสาธง จังหวัดสมุทรปรการ 10540",
            "Latitude": 13.598877,
            "Longitude": 100.792169,
            "Provider": "MG"
        },
        {
            "Name": "บางจาก นิมิตใหม่ 2",
            "description": null,
            "Power": null,
            "Dealership": "Non-dealership",
            "Address": "3/1 ถนนนิมิตใหม่ แขวงมีนบุรี เขตมีนบุรี กรุงเทพมหานคร 10510",
            "Latitude": 13.822769,
            "Longitude": 100.740784,
            "Provider": "MG"
        },
        {
            "Name": "บางจาก เลียบวารี",
            "description": null,
            "Power": null,
            "Dealership": "Non-dealership",
            "Address": "77 ถนนเลียบวารี แขวงกระทุ่มราย เขตหนองจอก กรุงเทพมหานคร 10530",
            "Latitude": 13.85555,
            "Longitude": 100.85672,
            "Provider": "MG"
        },
        {
            "Name": "บางจาก เทพารักษ์ กม.9",
            "description": null,
            "Power": null,
            "Dealership": "Non-dealership",
            "Address": "6/3 หมู่ที่ 3 ตำบลบางพลีใหญ่ อำเภอบางพลี จังหวัดสมุทรปราการ 10540",
            "Latitude": 13.611028,
            "Longitude": 100.670534,
            "Provider": "MG"
        },
        {
            "Name": "บางจาก เทพารักษ์ กม.11",
            "description": null,
            "Power": null,
            "Dealership": "Non-dealership",
            "Address": "72 หมู่ที่ 4 ตำบลบางพลีใหญ่ อำเภอบางพลี จังหวัดสมุทรปราการ 10540",
            "Latitude": 13.606314,
            "Longitude": 100.692026,
            "Provider": "MG"
        },
        {
            "Name": "บางจาก บางนา – ตราด กม.27",
            "description": null,
            "Power": null,
            "Dealership": "Non-dealership",
            "Address": "557 หมู่ที่ 1 ตำบลบางบ่อ อำเภอบางบ่อ จังหวัดสมุทรปราการ 10560",
            "Latitude": 13.586703,
            "Longitude": 100.840578,
            "Provider": "MG"
        },
        {
            "Name": "บางจาก บางบัวทอง 2",
            "description": null,
            "Power": null,
            "Dealership": "Non-dealership",
            "Address": "80 หมู่ที่ 9 ตำบลละหาร อำเภอบางบัวทอง จังหวัดนนทบุรี 11110",
            "Latitude": 13.955938,
            "Longitude": 100.405487,
            "Provider": "MG"
        },
        {
            "Name": "บางจาก รามอินทรา 71 (คู้บอน)",
            "description": "2x CCS2",
            "Power": "120 kW",
            "Dealership": "Non-dealership",
            "Address": "92 คู้บอน รามอินทรา คันนายาว กรุงเทพมหานคร 10230",
            "Latitude": 13.844191,
            "Longitude": 100.66358,
            "Provider": "MG"
        },
        {
            "Name": "บางจาก ราชพฤกษ์",
            "description": null,
            "Power": null,
            "Dealership": "Non-dealership",
            "Address": "14/5 หมู่ที่ 5 บางรักน้อย เมืองนนทบุรี นนทบุรี 11000",
            "Latitude": 13.88478,
            "Longitude": 100.45015,
            "Provider": "MG"
        },
        {
            "Name": "บางจาก รัตนาธิเบศน์",
            "description": "2x CCS2",
            "Power": "120 kW",
            "Dealership": "Non-dealership",
            "Address": "79/12 หมู่ที่ 3 ตำบลบางรักน้อย อำเภอเมืองนนทบุรี จังหวัดนนทบุรี 11000",
            "Latitude": 13.87455,
            "Longitude": 100.45802,
            "Provider": "MG"
        },
        {
            "Name": "MG ช้าง อุดรธานี",
            "description": null,
            "Power": null,
            "Dealership": "Dealership",
            "Address": "237/1 ถนนประจักษ์ศิลปาคม ตำบลหมากแข้ง อำเภอเมือง จังหวัดอุดรธานี 41000",
            "Latitude": 17.40571,
            "Longitude": 102.795601,
            "Provider": "MG"
        },
        {
            "Name": "บางจาก กาญจนาภิเษก กม.41",
            "description": null,
            "Power": null,
            "Dealership": "Non-dealership",
            "Address": "67 หมู่6 ตำบลบางรักพัฒนา อำเภอบางบัวทอง จังหวัดนนทบุรี 11110",
            "Latitude": 13.89184,
            "Longitude": 100.40774,
            "Provider": "MG"
        },
        {
            "Name": "MG เบส ออโต้ เซลส์",
            "description": null,
            "Power": null,
            "Dealership": "Dealership",
            "Address": "1687/1 ถนนเพชรเกษม แขวงหลักสอง เขตบางแค กรุงเทพฯ 10160",
            "Latitude": 13.708323,
            "Longitude": 100.384271,
            "Provider": "MG"
        },
        {
            "Name": "MG เบส ออโต้ เซลส์ (สาขารามคำแหง)",
            "description": null,
            "Power": null,
            "Dealership": "Dealership",
            "Address": "878/1 ถนนรามคำแหง แขวงหัวหมาก เขตบางกะปิ กรุงเทพมหานคร 10240",
            "Latitude": 13.764074,
            "Longitude": 100.652041,
            "Provider": "MG"
        },
        {
            "Name": "MG รุ่งเจริญ (สาขาบางนา กม.26)",
            "description": null,
            "Power": null,
            "Dealership": "Dealership",
            "Address": "345 หมู่ 7 ถนนบางนา-ตราด ตำบลบางเสาธง อำเภอบางเสาธง จังหวัดสมุทรปราการ 10540",
            "Latitude": 13.590022,
            "Longitude": 100.829638,
            "Provider": "MG"
        },
        {
            "Name": "ฺบางจาก สายไหม 63",
            "description": null,
            "Power": null,
            "Dealership": "Non-dealership",
            "Address": "529 หมู่ 1 ถ. สายไหม แขวงสายไหม เขตสายไหม กรุงเทพมหานคร 10220",
            "Latitude": 13.92145,
            "Longitude": 100.67558,
            "Provider": "MG"
        },
        {
            "Name": "บางจาก ปากน้ำ",
            "description": null,
            "Power": null,
            "Dealership": "Non-dealership",
            "Address": "125/2 ถนนสุขุมวิท ตำบลปากน้ำ อำเภอเมืองสมุทรปราการ จังหวัดสมุทรปราการ 10270",
            "Latitude": 13.596901,
            "Longitude": 100.604198,
            "Provider": "MG"
        },
        {
            "Name": "บางจาก พหลโยธิน กม.26",
            "description": null,
            "Power": null,
            "Dealership": "Non-dealership",
            "Address": "พหลโยธิน 73 (ซอยหงวน เหวียนระวิ) แขวงสนามบิน เขตดอนเมือง กรุงเทพมหานคร 10210",
            "Latitude": 13.936793,
            "Longitude": 100.62448,
            "Provider": "MG"
        },
        {
            "Name": "MG ออโต้เฮาส์ สระบุรี",
            "description": null,
            "Power": null,
            "Dealership": "Dealership",
            "Address": "111 หมู่ที่ 1 ตำบลคำพราน อำเภอวังม่วง จังหวัดสระบุรี 18220",
            "Latitude": 14.549055,
            "Longitude": 100.938756,
            "Provider": "MG"
        },
        {
            "Name": "บางจาก พระราม 2 (กม.12)",
            "description": null,
            "Power": null,
            "Dealership": "Non-dealership",
            "Address": "39/45 ถนนพระราม 2 แขวงแสมแดง เขตบางขุนเทียน กรุงเทพมหานคร 10150",
            "Latitude": 13.618681,
            "Longitude": 100.386575,
            "Provider": "MG"
        }
    ]
}