{
    "providers": "PEA",
    "results": [
        {
            "Name": "พัทยาใต้",
            "description": "321/1 หมู่ที่ 10 ต.หนองปรือ อ.บางละมุง จ.ชลบุรี 20150  PEA VOLTA พัทยาใต้ #2",
            "Power": "50 kW",
            "Latitude": 12.92267895,
            "Longitude": 100.8840332,
            "Provider": "PEA"
        },
        {
            "Name": "เขาย้อย",
            "description": "135 หมู่ 4 ถ.เพชรเกษม ต.สระพัง อ.เขาย้อย จ.เพชรบุรี 76140 Tel: 0-3256-2455 Fax: -  PEA VOLTA เขาย้อย",
            "Power": "50 kW",
            "Latitude": 13.26557732,
            "Longitude": 99.82255554,
            "Provider": "PEA"
        },
        {
            "Name": "สำนักงานใหญ่",
            "description": "200 ถนนงามวงศ์วาน แขวงลาดยาว เขตจตุจักร จ.กรุงเทพมหานคร 10900 (ปิดให้บริการชั่วคราว วันที่ 16/12/2022 เวลา 13:00 - 14:30 น.) PEA VOLTA สำนักงานใหญ่ #1",
            "Power": "50 kW",
            "Latitude": 13.85042763,
            "Longitude": 100.55857849,
            "Provider": "PEA"
        },
        {
            "Name": "นครชัยศรี",
            "description": "9 หมู่1 ต.ไทยาวาส อ.นครชัยศรี จ.นครปฐม 73121 Tel: 034-228-716 Fax: - PEA VOLTA นครชัยศรี",
            "Power": "50 kW",
            "Latitude": 13.80342865,
            "Longitude": 100.18870544,
            "Provider": "PEA"
        },
        {
            "Name": "สมุทรสาคร",
            "description": "1062 ถ.วิเชียรโชฏก ต.มหาชัย อ.เมือง จ.สมุทรสาคร 74000 Tel: 0-3442-2818   Fax : - PEA VOLTA สมุทรสาคร",
            "Power": "50 kW",
            "Latitude": 13.54332638,
            "Longitude": 100.26477051,
            "Provider": "PEA"
        },
        {
            "Name": "บางจาก ชะอำ",
            "description": "555/5 ถ.เพชรเกษม (ชะอำ) ต.เขาใหญ่ อ.ชะอำ จ.เพชรบุรี 76120 PEA VOLTA บางจาก ชะอำ #1",
            "Power": "50 kW",
            "Latitude": 12.81742477,
            "Longitude": 99.9409256,
            "Provider": "PEA"
        },
        {
            "Name": "บางจาก วังมะนาว (ขาออก)",
            "description": "3/1 ม.2 ถ.เพชรเกษม ต.ห้วยโรง อ.เขาย้อย จ.เพชรบุรี 76140 PEA VOLTA บางจาก วังมะนาว (ขาออก) #1",
            "Power": "50 kW",
            "Latitude": 13.31848145,
            "Longitude": 99.8276062,
            "Provider": "PEA"
        },
        {
            "Name": "บางจาก เมืองกระบี่",
            "description": "48/26 ถ.ศรีพังงา ต.ปากน้ำ อ.เมือง จ.กระบี่ 81000 PEA VOLTA บางจาก เมืองกระบี่ #2",
            "Power": "50 kW",
            "Latitude": 8.10309505,
            "Longitude": 98.90280151,
            "Provider": "PEA"
        },
        {
            "Name": "บางจาก คลองท่อม",
            "description": "154 ม.1 ถ.เพชรเกษม (4) ต.ห้วยน้ำขาว อ.คลองท่อม จ.กระบี่ 81120 PEA VOLTA บางจาก คลองท่อม #1",
            "Power": "50 kW",
            "Latitude": 7.87007999,
            "Longitude": 99.16378784,
            "Provider": "PEA"
        },
        {
            "Name": "บางจาก บายพาสชลบุรี",
            "description": "99/1 ม.4 ถ.สายอ้อมเมืองชลบุรี ต.หนองไม้แดง อ.เมือง จ.ชลบุรี 20000 PEA VOLTA บางจาก บายพาสชลบุรี #1",
            "Power": "50 kW",
            "Latitude": 13.41339302,
            "Longitude": 100.99969482,
            "Provider": "PEA"
        },
        {
            "Name": "บางจาก เมืองพิษณุโลก (ทล.11 กม.228)",
            "description": "555 ม.3 ต.ดอนทอง อ.เมืองพิษณุโลก จ.พิษณุโลก 65000 PEA VOLTA บางจาก เมืองพิษณุโลก (ทล.11 กม.228) #1",
            "Power": "50 kW",
            "Latitude": 16.85162544,
            "Longitude": 100.34738159,
            "Provider": "PEA"
        },
        {
            "Name": "บางจาก บางปะอิน",
            "description": "59 ม.3 สายเอเชีย ต.บ้านหว้า อ.บางปะอิน จ.พระนครศรีอยุธยา 13160 PEA VOLTA บางจาก บางปะอิน #1",
            "Power": "50 kW",
            "Latitude": 14.26578903,
            "Longitude": 100.61248016,
            "Provider": "PEA"
        },
        {
            "Name": "บางจาก แก่งคอย",
            "description": "94 ม.4 ถ.มิตรภาพ ต.ตาลเดี่ยว อ.แก่งคอย จ.สระบุรี 18110 PEA VOLTA บางจาก แก่งคอย #1",
            "Power": "50 kW",
            "Latitude": 14.57350159,
            "Longitude": 100.98709869,
            "Provider": "PEA"
        },
        {
            "Name": "บางจาก ปากช่อง",
            "description": "199 ม.1 ถ.มิตรภาพ ต.ปากช่อง อ.ปากช่อง จ.นครราชสีมา 30130 PEA VOLTA บางจาก ปากช่อง #1",
            "Power": "50 kW",
            "Latitude": 14.65200138,
            "Longitude": 101.35745239,
            "Provider": "PEA"
        },
        {
            "Name": "บางจาก บ้านบึง",
            "description": "105 ม.5 ถ.สายชลบุรี-บ้านบึง ต.มาบไผ่ อ.บ้านบึง จ.ชลบุรี 20170 PEA VOLTA บางจาก บ้านบึง #2",
            "Power": "50 kW",
            "Latitude": 13.33185959,
            "Longitude": 101.08281708,
            "Provider": "PEA"
        },
        {
            "Name": "พะเยา",
            "description": "เลขที่ 159 หมู่ 1 ต.แม่ปืม อ.เมือง จ.พะเยา 56000 PEA VOLTA พะเยา #2",
            "Power": "50 kW",
            "Latitude": 19.19921875,
            "Longitude": 99.87414551,
            "Provider": "PEA"
        },
        {
            "Name": "แพร่",
            "description": "หมู่ 8 189 ต.นาจักร อ.เมือง จ.แพร่ 54000 PEA VOLTA แพร่ #1",
            "Power": "50 kW",
            "Latitude": 18.11483765,
            "Longitude": 100.14887238,
            "Provider": "PEA"
        },
        {
            "Name": "ร้อยเอ็ด",
            "description": "308 หมู่ 7 ถ.เลี่ยงเมือง ต.ดงลาน อ.เมือง จ.ร้อยเอ็ด 45000 PEA VOLTA ร้อยเอ็ด #2",
            "Power": "50 kW",
            "Latitude": 16.04526901,
            "Longitude": 103.6271286,
            "Provider": "PEA"
        },
        {
            "Name": "บางจาก นครราชสีมา (กม. 141)",
            "description": "1587/1 ถ.มิตรภาพ ต.บ้านใหม่ อ.เมือง จ.นครราชสีมา 30000 PEA VOLTA บางจาก นครราชสีมา (กม. 141) #1",
            "Power": "50 kW",
            "Latitude": 14.95731163,
            "Longitude": 102.04100037,
            "Provider": "PEA"
        },
        {
            "Name": "บางจาก พุนพิน",
            "description": "85 ม.3 ถ.เอเซีย ต.หัวเตย อ.พุนพิน จ.สุราษฎร์ธานี 84130 PEA VOLTA บางจาก พุนพิน #1",
            "Power": "50 kW",
            "Latitude": 9.12692261,
            "Longitude": 99.15952301,
            "Provider": "PEA"
        },
        {
            "Name": "บางจาก ละแม",
            "description": "139 ม.9 ต.ทุ่งหลวง อ.ละแม จ.ชุมพร 86170 PEA VOLTA บางจาก ละแม #2",
            "Power": "50 kW",
            "Latitude": 9.77398396,
            "Longitude": 99.07875824,
            "Provider": "PEA"
        },
        {
            "Name": "บางจาก คลองขลุง",
            "description": "39/8 ม.10 ต.คลองขลุง อ.คลองขลุง จ.กำแพงเพชร 62120 PEA VOLTA บางจาก คลองขลุง #1",
            "Power": "50 kW",
            "Latitude": 16.21014404,
            "Longitude": 99.70331573,
            "Provider": "PEA"
        },
        {
            "Name": "บางจาก เมืองตาก",
            "description": "9 ม.5 ต.เชียงเงิน อ.เมืองตาก จ.ตาก 63000 PEA VOLTA บางจาก เมืองตาก #2",
            "Power": "50 kW",
            "Latitude": 16.87879181,
            "Longitude": 99.12906647,
            "Provider": "PEA"
        },
        {
            "Name": "บางจาก สีคิ้ว (มิตรภาพ กม.92)",
            "description": "25 ม.12 ต.ลาดบัวขาว อ.สีคิ้ว จ.นครราชสีมา 30340 PEA VOLTA บางจาก สีคิ้ว (มิตรภาพ กม.92) #1",
            "Power": "50 kW",
            "Latitude": 14.84046268,
            "Longitude": 101.60757446,
            "Provider": "PEA"
        },
        {
            "Name": "บางจาก ท่าแซะ",
            "description": "ท่าแซะ ต.ท่าข้าม อ.ท่าแซะ จ.ชุมพร 86140 PEA VOLTA บางจาก ท่าแซะ #2",
            "Power": "50 kW",
            "Latitude": 10.59331322,
            "Longitude": 99.12245941,
            "Provider": "PEA"
        },
        {
            "Name": "บางจาก กะทู้",
            "description": "2/75-76 ม.2 ถ.ทางหลวงชนบท ป่าตอง-กะทู้ (2010) ต.กะทู้ อ.กะทู้ จ.ภูเก็ต 83120 PEA VOLTA บางจาก กะทู้ #1",
            "Power": "50 kW",
            "Latitude": 7.9089098,
            "Longitude": 98.34481049,
            "Provider": "PEA"
        },
        {
            "Name": "บางจาก ซุปเปอร์ไฮเวย์เชียงใหม่",
            "description": "99 ม.1 ถ.ซุปเปอร์ไฮเวย์ ต.หนองป่าครั่ง อ.เมือง จ.เชียงใหม่ 50000 PEA VOLTA บางจาก ซุปเปอร์ไฮเวย์เชียงใหม่ #1",
            "Power": "50 kW",
            "Latitude": 18.7917366,
            "Longitude": 99.02420044,
            "Provider": "PEA"
        },
        {
            "Name": "บางจาก เมืองภูเก็ต",
            "description": "24/11 ม.4 ถ.วิเศษ ต.ราไวย์ อ.เมือง จ.ภูเก็ต 83130 PEA VOLTA บางจาก เมืองภูเก็ต #1",
            "Power": "50 kW",
            "Latitude": 7.8075428,
            "Longitude": 98.33696747,
            "Provider": "PEA"
        },
        {
            "Name": "บางจาก เมืองพังงา",
            "description": "29/38 ม.3 ต.ตากแดด อ.เมือง จ.พังงา 80180 PEA VOLTA บางจาก เมืองพังงา #1",
            "Power": "50 kW",
            "Latitude": 8.42503834,
            "Longitude": 98.47972107,
            "Provider": "PEA"
        },
        {
            "Name": "บางจาก เมืองหนองคาย",
            "description": "57/1 ม.5 ถ.สายหนองคาย-โพนพิสัย ต.หาดคำ อ.เมือง จ.หนองคาย 43000 (สถานีให้บริการน้ำมันให้บริการในเวลา 5:30-21:30 น.) PEA VOLTA บางจาก เมืองหนองคาย #1",
            "Power": "50 kW",
            "Latitude": 17.89057541,
            "Longitude": 102.77641296,
            "Provider": "PEA"
        },
        {
            "Name": "บางจาก เมืองขอนแก่น (แยกเมืองเก่า)",
            "description": "485 ม.12 ถ.สายขอนแก่น-บ้านไผ่ (มิตรภาพ) ต.ศิลา อ.เมือง จ.ขอนแก่น 40000 PEA VOLTA บางจาก เมืองขอนแก่น (แยกเมืองเก่า) #2",
            "Power": "50 kW",
            "Latitude": 16.3802948,
            "Longitude": 102.81069183,
            "Provider": "PEA"
        },
        {
            "Name": "บางจาก อินทร์บุรี (ขาออก)",
            "description": "116 ม.1 ถ.สายเอเชีย ต.น้ำตาล อ.อินทร์บุรี จ.สิงห์บุรี 16110 PEA VOLTA บางจาก อินทร์บุรี (ขาออก) #1",
            "Power": "50 kW",
            "Latitude": 14.98171806,
            "Longitude": 100.35731506,
            "Provider": "PEA"
        },
        {
            "Name": "หล่มสัก",
            "description": "145 หมู่ 3 ถนนสระบุรี-หล่มสัก ต.หนองไขว่ อ.หล่มสัก จ.เพชรบูรณ์ 67110 PEA VOLTA หล่มสัก #1",
            "Power": "50 kW",
            "Latitude": 16.76070213,
            "Longitude": 101.21662903,
            "Provider": "PEA"
        },
        {
            "Name": "บางจาก แม่ลาว",
            "description": "59 ม.2 ถ.พหลโยธิน (พาน-เชียงราย) ต.จอมหมอกแก้ว อ.แม่ลาว จ.เชียงราย 57250 (สถานีให้บริการน้ำมันให้บริการในเวลา 05:30-22:00 น.) PEA VOLTA บางจาก แม่ลาว #1",
            "Power": "50 kW",
            "Latitude": 19.75447845,
            "Longitude": 99.73159027,
            "Provider": "PEA"
        },
        {
            "Name": "บางจาก พล",
            "description": "10 ม.8 ถ.ทางหลวงแผ่นดินหมายเลข 2 ต.หนองแวงโสกพระ อ.พล จ.ขอนแก่น 40120 PEA VOLTA บางจาก พล #1",
            "Power": "50 kW",
            "Latitude": 15.72360611,
            "Longitude": 102.5921936,
            "Provider": "PEA"
        },
        {
            "Name": "บางจาก เมืองอุดรธานี",
            "description": "558 ถ.โพศรี ต.หมากแข้ง อ.เมือง จ.อุดรธานี 41000 PEA VOLTA บางจาก เมืองอุดรธานี #1",
            "Power": "50 kW",
            "Latitude": 17.40020943,
            "Longitude": 102.80043793,
            "Provider": "PEA"
        },
        {
            "Name": "บางจาก นาเกลือ",
            "description": "472/59 ม.4 ต.นาเกลือ อ.บางละมุง จ.ชลบุรี 20150 PEA VOLTA บางจาก นาเกลือ #2",
            "Power": "50 kW",
            "Latitude": 12.96428871,
            "Longitude": 100.90988159,
            "Provider": "PEA"
        },
        {
            "Name": "บางจาก หาดใหญ่",
            "description": "46/1 ถ.เพชรเกษม ต.หาดใหญ่ อ.หาดใหญ่ จ.สงขลา 90110 PEA VOLTA บางจาก หาดใหญ่ #2",
            "Power": "50 kW",
            "Latitude": 7.00386286,
            "Longitude": 100.46021271,
            "Provider": "PEA"
        },
        {
            "Name": "บางจาก ทุ่งสง",
            "description": "83/1 ม.7 ต.หนองหงส์ ต.ทุ่งสง จ.นครศรีธรรมราช 80110 PEA VOLTA บางจาก ทุ่งสง #2",
            "Power": "50 kW",
            "Latitude": 8.1750927,
            "Longitude": 99.63127899,
            "Provider": "PEA"
        },
        {
            "Name": "บางจาก ทับสะแก",
            "description": "55 ม.1 ถ.เพชรเกษม ต.แสงอรุณ ต.ทับสะแก จ.ประจวบคีรีขันธ์ 77130 PEA VOLTA บางจาก ทับสะแก #2",
            "Power": "50 kW",
            "Latitude": 11.54640007,
            "Longitude": 99.63079834,
            "Provider": "PEA"
        },
        {
            "Name": "บางจาก ท่าใหม่",
            "description": "67/20 ม.3 ถ.สุขุมวิท ต.ทุ่งเบญจา อ.ท่าใหม่ จ.จันทบุรี 22170 PEA VOLTA บางจาก ท่าใหม่ #2",
            "Power": "50 kW",
            "Latitude": 12.71175194,
            "Longitude": 101.98202515,
            "Provider": "PEA"
        },
        {
            "Name": "บางจาก พยุหะคีรี",
            "description": "41/1 ม.2 ถ.พหลโยธิน ต.ย่านมัทรี อ.พยุหะคีรี จ.นครสวรรค์ 60130 PEA VOLTA บางจาก พยุหะคีรี #2",
            "Power": "50 kW",
            "Latitude": 15.49873257,
            "Longitude": 100.12822723,
            "Provider": "PEA"
        },
        {
            "Name": "บางจาก บึงนาราง",
            "description": "456 ม.2 ต.บึงนาราง อ.บึงนาราง จ.พิจิตร 66130 PEA VOLTA บางจาก บึงนาราง #2",
            "Power": "50 kW",
            "Latitude": 16.18552208,
            "Longitude": 100.1280899,
            "Provider": "PEA"
        },
        {
            "Name": "บางจาก นครราชสีมา (กม. 134)",
            "description": "444/1 ม.8 ต.โคกกรวด อ.เมือง จ.นครราชสีมา 30000 PEA VOLTA บางจาก นครราชสีมา (กม. 134) #1",
            "Power": "50 kW",
            "Latitude": 14.93463707,
            "Longitude": 101.98297882,
            "Provider": "PEA"
        },
        {
            "Name": "บางจาก ขุขันธ์",
            "description": "58 ม.8 ถ.ทางหลวงแผ่นดินสายโชคชัย-เดชอุดม (24) ต.นิคมพัฒนา อ.ขุขันธ์ จ.ศรีสะเกษ 33140 (สถานีให้บริการน้ำมันให้บริการในเวลา 06:00-20:00 น. ผู้ใช้บริการ PEA VOLTA ต้องทำการเลื่อนรั้วกั้นเพื่อเข้าใช้บริการ) PEA VOLTA บางจาก ขุขันธ์ #1",
            "Power": "50 kW",
            "Latitude": 14.65510368,
            "Longitude": 104.22760773,
            "Provider": "PEA"
        },
        {
            "Name": "สระแก้ว",
            "description": "เลขที่ 6 ถ.สุวรรณศร ต.สระแก้ว อ.เมือง จ.สระแก้ว 27000 PEA VOLTA สระแก้ว #2",
            "Power": "50 kW",
            "Latitude": 13.83916283,
            "Longitude": 102.04624939,
            "Provider": "PEA"
        },
        {
            "Name": "บางจาก เมืองบุรีรัมย์ (คูเมือง)",
            "description": "188 ม.3 ถ.บุรีรัมย์-คูเมือง ต.ชุมเห็ด อ.เมือง จ.บุรีรัมย์ 31000 PEA VOLTA บางจาก เมืองบุรีรัมย์ (คูเมือง) #2",
            "Power": "50 kW",
            "Latitude": 15.05379486,
            "Longitude": 103.08460236,
            "Provider": "PEA"
        },
        {
            "Name": "บางจาก ประโคนชัย",
            "description": "ต.โคกม้า อ.ประโคนชัย จ.บุรีรัมย์ 31140 PEA VOLTA บางจาก ประโคนชัย #1",
            "Power": "50 kW",
            "Latitude": 14.61214161,
            "Longitude": 103.05731964,
            "Provider": "PEA"
        },
        {
            "Name": "บางจาก แกลง",
            "description": "337/1 ถ.สุขุมวิท ต.ทางเกวียน อ.แกลง จ.ระยอง 21110 PEA VOLTA บางจาก แกลง #1",
            "Power": "50 kW",
            "Latitude": 12.78665543,
            "Longitude": 101.67284393,
            "Provider": "PEA"
        },
        {
            "Name": "บางจาก วังน้อย (พหลโยธิน กม.57)",
            "description": "555 ม.2 ถ.พหลโยธิน ต.ลำไทร อ.วังน้อย จ.พระนครศรีอยุธยา 13170 PEA VOLTA บางจาก วังน้อย (พหลโยธิน กม.57) #2",
            "Power": "50 kW",
            "Latitude": 14.19540596,
            "Longitude": 100.64606476,
            "Provider": "PEA"
        },
        {
            "Name": "บางจาก เมืองชลบุรี",
            "description": "ถ.เลี่ยงเมืองชลบุรี ต.บ้านสวน อ.เมืองชลบุรี จ.ชลบุรี 20000 PEA VOLTA บางจาก เมืองชลบุรี #1",
            "Power": "50 kW",
            "Latitude": 13.36228561,
            "Longitude": 101.01564026,
            "Provider": "PEA"
        },
        {
            "Name": "บางจาก เมืองระยอง",
            "description": "351/2 ถ.สุขุมวิท ต.เนินพระ อ.เมือง จ.ระยอง 21000 PEA VOLTA บางจาก เมืองระยอง #2",
            "Power": "50 kW",
            "Latitude": 12.6824894,
            "Longitude": 101.25444794,
            "Provider": "PEA"
        },
        {
            "Name": "บางจาก ชะอวด",
            "description": "228/4 ม.2 ถ.ทางหลวงหมายเลข 41 ต.เกาะขันธ์ อ.ชะอวด จ.นครศรีธรรมราช 80180 PEA VOLTA บางจาก ชะอวด #1",
            "Power": "50 kW",
            "Latitude": 7.89833117,
            "Longitude": 99.92877197,
            "Provider": "PEA"
        },
        {
            "Name": "บางจาก เมืองตรัง",
            "description": "6 ถ.วิเศษกุล ต.ทับเที่ยง อ.เมือง จ.ตรัง 92000 PEA VOLTA บางจาก เมืองตรัง #1",
            "Power": "50 kW",
            "Latitude": 7.5609951,
            "Longitude": 99.60598755,
            "Provider": "PEA"
        },
        {
            "Name": "บางจาก เขาสมิง",
            "description": "92/1 ม.5 ถ.สุขุมวิท ต.แสนตุ้ง อ.เขาสมิง จ.ตราด 23150 (สถานีให้บริการน้ำมันให้บริการในเวลา 06:00-20:00 น.) PEA VOLTA บางจาก เขาสมิง #1",
            "Power": "50 kW",
            "Latitude": 12.37870502,
            "Longitude": 102.3765564,
            "Provider": "PEA"
        },
        {
            "Name": "บางจาก วังจันทร์",
            "description": "168 หมู่6 ต.ป่ายุปใน อ.วังจันทร์ จ.ระยอง 21210 PEA VOLTA บางจาก วังจันทร์ #1",
            "Power": "50 kW",
            "Latitude": 13.03796291,
            "Longitude": 101.43467712,
            "Provider": "PEA"
        },
        {
            "Name": "บางจาก เมืองนครปฐม (กม. 61 ขาเข้า)",
            "description": "272 ม.2 ถ.เพชรเกษม ต.ลำพยา อ.เมือง จ.นครปฐม 73000 PEA VOLTA บางจาก เมืองนครปฐม (กม. 61 ขาเข้า) #1",
            "Power": "50 kW",
            "Latitude": 13.80427837,
            "Longitude": 100.02313232,
            "Provider": "PEA"
        },
        {
            "Name": "บางจาก ท่าม่วง",
            "description": "6 ม.1 ต.ท่าล้อ อ.ท่าม่วง จ.กาญจนบุรี 71000 PEA VOLTA บางจาก ท่าม่วง #1",
            "Power": "50 kW",
            "Latitude": 13.99449635,
            "Longitude": 99.5610733,
            "Provider": "PEA"
        },
        {
            "Name": "บางจาก ห้างฉัตร",
            "description": "141 ม.1 ถ.สายลำปาง-เชียงใหม่ ต.ปงยางคก อ.ห้างฉัตร จ.ลำปาง 52190 PEA VOLTA บางจาก ห้างฉัตร #1",
            "Power": "50 kW",
            "Latitude": 18.31063461,
            "Longitude": 99.38988495,
            "Provider": "PEA"
        },
        {
            "Name": "บางจาก ดอยสะเก็ด",
            "description": "480-480/1 ม.3 ถ.ติดทางหลวงจังหวัดสายดอยสะเก็ด-แม่สาย (1019) ต.เชิงดอย อ.ดอยสะเก็ด จ.เชียงใหม่ 50220 PEA VOLTA บางจาก ดอยสะเก็ด #1",
            "Power": "50 kW",
            "Latitude": 18.87332153,
            "Longitude": 99.13359833,
            "Provider": "PEA"
        },
        {
            "Name": "บางจาก แม่ริม",
            "description": "197 ม.4 ถ.สายเชียงใหม่-ฝาง ต.แม่สา อ.แม่ริม จ.เชียงใหม่ 50180 PEA VOLTA บางจาก แม่ริม #1",
            "Power": "50 kW",
            "Latitude": 18.90111542,
            "Longitude": 98.95011902,
            "Provider": "PEA"
        },
        {
            "Name": "บางจาก ดอยหล่อ",
            "description": "19 ม.23 ต.ดอยหล่อ อ.ดอยหล่อ จ.เชียงใหม่ 50160 PEA VOLTA บางจาก ดอยหล่อ #1",
            "Power": "50 kW",
            "Latitude": 18.4515667,
            "Longitude": 98.75217438,
            "Provider": "PEA"
        },
        {
            "Name": "บางจาก สามพราน",
            "description": "18/8 ม.2 ถ.สายปิ่นเกล้า-นครชัยศรี ต.บางเตย อ.สามพราน จ.นครปฐม 73110 (สถานีให้บริการน้ำมันให้บริการในเวลา 5:30-23:00 น.) PEA VOLTA บางจาก สามพราน #1",
            "Power": "50 kW",
            "Latitude": 13.78533554,
            "Longitude": 100.2725296,
            "Provider": "PEA"
        },
        {
            "Name": "บางจาก นาโคก (ขาออก)",
            "description": "84/7 ม.2 ถ.สายธนบุรี-ปากท่อ ต.นาโคก อ.เมือง จ.สมุทรสาคร 74000 PEA VOLTA บางจาก นาโคก (ขาออก) #1",
            "Power": "50 kW",
            "Latitude": 13.45208073,
            "Longitude": 100.08407593,
            "Provider": "PEA"
        },
        {
            "Name": "บางจาก เมืองพิษณุโลก (เซ็นทรัล)",
            "description": "68/3 ม.5 ถ.สายพิษณุโลก-สุโขทัย ต.พลายชุมพล อ.เมืองพิษณุโลก จ.พิษณุโลก 65000 PEA VOLTA บางจาก เมืองพิษณุโลก (เซ็นทรัล) #2",
            "Power": "50 kW",
            "Latitude": 16.84242058,
            "Longitude": 100.23114014,
            "Provider": "PEA"
        },
        {
            "Name": "รังสิต",
            "description": "60 หมู่ 6 ถนนพหลโยธิน ต.คลองหนึ่ง อ.คลองหลวง จ.ปทุมธานี 12120 Tel: 02-516-8659  PEA VOLTA รังสิต",
            "Power": "50 kW",
            "Latitude": 14.04528141,
            "Longitude": 100.61618805,
            "Provider": "PEA"
        },
        {
            "Name": "ปากช่อง",
            "description": "171 ถ.มิตรภาพ ต.ปากช่อง อ.ปากช่อง จ.นครราชสีมา 30130 Tel: 0-4431-3373   Fax : - PEA VOLTA ปากช่อง",
            "Power": "50 kW",
            "Latitude": 14.69263268,
            "Longitude": 101.4057312,
            "Provider": "PEA"
        },
        {
            "Name": "บางจาก เมืองขอนแก่น (มิตรภาพ กม.348)",
            "description": "78 ม.1 ถ.มิตรภาพ ต.ศิลา อ.เมือง จ.ขอนแก่น 40000 PEA VOLTA บางจาก เมืองขอนแก่น (มิตรภาพ กม.348) #1",
            "Power": "50 kW",
            "Latitude": 16.51951981,
            "Longitude": 102.83187103,
            "Provider": "PEA"
        },
        {
            "Name": "สถานี เข้าท่า บ้านบึง",
            "description": "101 หมู่ 1 ตำบล หนองซ้ำซาก อำเภอบ้านบึง ชลบุรี 20170 &#34;ร่วมเครือข่าย PEA VOLTA&#34;  สถานี เข้าท่า บ้านบึง #2 (ร่วมเครือข่าย PEA VOLTA)",
            "Power": "150 kW",
            "Latitude": 13.33417511,
            "Longitude": 101.07898712,
            "Provider": "PEA"
        },
        {
            "Name": "บริษัท พรีไซซ ซิสเท็ม",
            "description": "เลขที่ 1/333 หมู่ที่ 9 ตำบลบางพูด  อำเภอปากเกร็ด  จังหวัดนนทบุรี บริษัท พรีไซซ ซิสเท็ม (ร่วมเครือข่าย PEA VOLTA)",
            "Power": "40 kW",
            "Latitude": 13.91230679,
            "Longitude": 100.520401,
            "Provider": "PEA"
        },
        {
            "Name": "เขตชลบุรี",
            "description": "47/1 หมู่ 3 ต.เสม็ด อ.เมืองชลบุรี จ.ชลบุรี 20000 Tel: 038 455 086 Fax: -  เปิดให้บริการ PEA VOLTA เขตชลบุรี #2",
            "Power": "120 kW",
            "Latitude": 13.32851124,
            "Longitude": 100.95263672,
            "Provider": "PEA"
        },
        {
            "Name": "บางจาก เมืองปทุมธานี",
            "description": "10 ตำบล บางกะดี อำเภอเมืองปทุมธานี ปทุมธานี 12000 PEA VOLTA บางจาก เมืองปทุมธานี #1",
            "Power": "50 kW",
            "Latitude": 13.99169827,
            "Longitude": 100.55096436,
            "Provider": "PEA"
        },
        {
            "Name": "บางจาก เฉลิมพระเกียรติ",
            "description": "101 หมู่ 8 ถนนพหลโยธิน ตำบลหน้าพระลาน อำเภอเฉลิมพระเกียรติ สระบุรี 18000 PEA VOLTA บางจาก เฉลิมพระเกียรติ #2",
            "Power": "50 kW",
            "Latitude": 14.69464016,
            "Longitude": 100.86740112,
            "Provider": "PEA"
        },
        {
            "Name": "บางจาก เมืองสระบุรี",
            "description": "64 ตำบล หนองปลาไหล อำเภอเมืองสระบุรี สระบุรี 18000 PEA VOLTA บางจาก เมืองสระบุรี #1",
            "Power": "50 kW",
            "Latitude": 14.46105862,
            "Longitude": 100.92274475,
            "Provider": "PEA"
        },
        {
            "Name": "บางจาก องครักษ์",
            "description": "ตำบล บางปลากด อำเภอองครักษ์ นครนายก 26120 PEA VOLTA บางจาก องครักษ์ #1",
            "Power": "50 kW",
            "Latitude": 14.16397858,
            "Longitude": 101.01033783,
            "Provider": "PEA"
        },
        {
            "Name": "บางจาก กบินทร์บุรี (ลาดตะเคียน)",
            "description": "99 ตำบลลาดตะเคียน อำเภอกบินทร์บุรี ปราจีนบุรี 25110 PEA VOLTA บางจาก กบินทร์บุรี (ลาดตะเคียน) #1",
            "Power": "50 kW",
            "Latitude": 13.9048481,
            "Longitude": 101.65842438,
            "Provider": "PEA"
        },
        {
            "Name": "บางจาก แปลงยาว",
            "description": "ตำบล วังเย็น อำเภอแปลงยาว ฉะเชิงเทรา 24190 PEA VOLTA บางจาก แปลงยาว #1",
            "Power": "50 kW",
            "Latitude": 13.57745838,
            "Longitude": 101.27690125,
            "Provider": "PEA"
        },
        {
            "Name": "บางจาก กบินทร์บุรี (นนทรี)",
            "description": "ตำบล นนทรี อำเภอกบินทร์บุรี ปราจีนบุรี 25110 PEA VOLTA บางจาก กบินทร์บุรี (นนทรี) #1",
            "Power": "50 kW",
            "Latitude": 14.04671955,
            "Longitude": 101.62847137,
            "Provider": "PEA"
        },
        {
            "Name": "เมืองสมุทรสงคราม",
            "description": "27 หมู่1 ตำบล คลองโคน อำเภอเมืองสมุทรสงคราม สมุทรสงคราม 75000 PEA VOLTA เมืองสมุทรสงคราม #1",
            "Power": "50 kW",
            "Latitude": 13.36135006,
            "Longitude": 99.94651794,
            "Provider": "PEA"
        },
        {
            "Name": "เมืองราชบุรี",
            "description": "86 หมู่ 8 ถ.เพชรเกษม ตำบล เจดีย์หัก อำเภอเมืองราชบุรี ราชบุรี 70000 PEA VOLTA เมืองราชบุรี #2",
            "Power": "50 kW",
            "Latitude": 13.53124428,
            "Longitude": 99.7930069,
            "Provider": "PEA"
        },
        {
            "Name": "บางจาก เมืองชลบุรี (หนองมน)",
            "description": "413 ถนนสุขุมวิท ตำบลแสนสุข อำเภอเมืองชลบุรี ชลบุรี 20000 PEA VOLTA บางจาก เมืองชลบุรี (หนองมน) #1",
            "Power": "50 kW",
            "Latitude": 13.2720089,
            "Longitude": 100.93522644,
            "Provider": "PEA"
        },
        {
            "Name": "บางจาก เมืองฉะเชิงเทรา",
            "description": "ตำบล วังตะเคียน อำเภอเมืองฉะเชิงเทรา ฉะเชิงเทรา 24000 PEA VOLTA บางจาก เมืองฉะเชิงเทรา #1",
            "Power": "50 kW",
            "Latitude": 13.70581436,
            "Longitude": 101.05323792,
            "Provider": "PEA"
        },
        {
            "Name": "ชลบุรี",
            "description": "ตำบล หนองข้างคอก อำเภอเมืองชลบุรี ชลบุรี 20000 PEA VOLTA ชลบุรี 3",
            "Power": "25 kW",
            "Latitude": 13.34035683,
            "Longitude": 100.99124146,
            "Provider": "PEA"
        },
        {
            "Name": "พระนครศรีอยุธยา",
            "description": "60 หมู่ 5 ตำบล ไผ่ลิง อำเภอ พระนครศรีอยุธยา จังหวัด พระนครศรีอยุธยา PEA VOLTA พระนครศรีอยุธยา 2",
            "Power": "25 kW",
            "Latitude": 14.35430241,
            "Longitude": 100.59719849,
            "Provider": "PEA"
        },
        {
            "Name": "ตราด",
            "description": "199 ม. 5 ตำบลวังกระแจะ อำเภอเมืองตราด จังหวัดตราด 23000  PEA VOLTA ตราด",
            "Power": "25 kW",
            "Latitude": 12.27341747,
            "Longitude": 102.49250793,
            "Provider": "PEA"
        },
        {
            "Name": "บ้านโพธิ์",
            "description": "80 หมู่ที่ 1 ถนน บางปะกง - ฉะเชิงเทรา ตำบล คลองประเวศ อำเภอบ้านโพธิ์ ฉะเชิงเทรา 24140 PEA VOLTA บ้านโพธิ์",
            "Power": "25 kW",
            "Latitude": 13.62499332,
            "Longitude": 101.03292847,
            "Provider": "PEA"
        },
        {
            "Name": "เกาะพะงัน",
            "description": "101 หมู่ 3 ตำบล บ้านใต้ อำเภอเกาะพะงัน สุราษฎร์ธานี 84280 PEA VOLTA เกาะพะงัน",
            "Power": "25 kW",
            "Latitude": 9.70783424,
            "Longitude": 99.99252319,
            "Provider": "PEA"
        },
        {
            "Name": "เบตง",
            "description": "เลขที่ 1 ถ.สโมสร ตำบลเบตง อำเภอเบตง ยะลา 95110 PEA VOLTA เบตง",
            "Power": "25 kW",
            "Latitude": 5.77053022,
            "Longitude": 101.06825256,
            "Provider": "PEA"
        },
        {
            "Name": "สอยดาว",
            "description": "222 ตำบล ทรายขาว อำเภอ สอยดาว จันทบุรี 22180 PEA VOLTA สอยดาว",
            "Power": "25 kW",
            "Latitude": 13.10176086,
            "Longitude": 102.23729706,
            "Provider": "PEA"
        },
        {
            "Name": "กาญจนบุรี",
            "description": "49 ตำบล ปากแพรก อำเภอเมืองกาญจนบุรี กาญจนบุรี 71000 PEA VOLTA กาญจนบุรี",
            "Power": "25 kW",
            "Latitude": 14.02805042,
            "Longitude": 99.55176544,
            "Provider": "PEA"
        },
        {
            "Name": "สุพรรณบุรี",
            "description": "188 หมู่1 ตำบลสนามชัย อำเภอเมืองสุพรรณบุณี จังหวัดสุพรรณบุรี 72000 PEA VOLTA สุพรรณบุรี",
            "Power": "25 kW",
            "Latitude": 14.51966,
            "Longitude": 100.13065338,
            "Provider": "PEA"
        },
        {
            "Name": "เมืองพิจิตร",
            "description": "ซอย บึงสีไฟ 6 ตำบล ในเมือง อำเภอเมืองพิจิตร พิจิตร 66000 PEA VOLTA เมืองพิจิตร",
            "Power": "25 kW",
            "Latitude": 16.43827248,
            "Longitude": 100.34598541,
            "Provider": "PEA"
        },
        {
            "Name": "ตาก",
            "description": "3 จอมพล ตำบลระแหง อำเภอเมืองตาก ตาก 63000 PEA VOLTA ตาก",
            "Power": "25 kW",
            "Latitude": 16.86868668,
            "Longitude": 99.12432098,
            "Provider": "PEA"
        },
        {
            "Name": "ตะพานหิน",
            "description": "119 หมู่ 3 ถนนตะพานหิน-เพชรบูรณ์ ตำบลตะพานหิน อำเภอตะพานหิน จังหวัดพิจิตร 66110 PEA VOLTA ตะพานหิน",
            "Power": "25 kW",
            "Latitude": 16.20484924,
            "Longitude": 100.47024536,
            "Provider": "PEA"
        },
        {
            "Name": "ขาณุวรลักษบุรี",
            "description": "ถ. พหลโยธิน ต.ดอนแตง อำเภอขาณุวรลักษบุรี กำแพงเพชร 62140 PEA VOLTA ขาณุวรลักษบุรี",
            "Power": "25 kW",
            "Latitude": 16.02359009,
            "Longitude": 99.78053284,
            "Provider": "PEA"
        },
        {
            "Name": "เพชรบุรี",
            "description": "ถ.ราชดำเนิน ตำบล คลองกระแซง อำเภอเมืองเพชรบุรี เพชรบุรี 76000 PEA VOLTA เพชรบุรี",
            "Power": "25 kW",
            "Latitude": 13.09834576,
            "Longitude": 99.94366455,
            "Provider": "PEA"
        },
        {
            "Name": "โพธาราม",
            "description": "190 ซอย เลิศพาณิชย์ ตำบล โพธาราม อำเภอโพธาราม ราชบุรี 70120 PEA VOLTA โพธาราม",
            "Power": "25 kW",
            "Latitude": 13.68953323,
            "Longitude": 99.8482132,
            "Provider": "PEA"
        },
        {
            "Name": "จอมบึง",
            "description": "35/2 ถนน ราชบุรี - ผาปก ตำบล จอมบึง อำเภอ จอมบึง ราชบุรี 70150 PEA VOLTA จอมบึง",
            "Power": "25 kW",
            "Latitude": 13.62386417,
            "Longitude": 99.61400604,
            "Provider": "PEA"
        },
        {
            "Name": "พระแสง",
            "description": "ตำบล อิปัน อำเภอ พระแสง สุราษฎร์ธานี 84210 PEA VOLTA พระแสง",
            "Power": "25 kW",
            "Latitude": 8.5707922,
            "Longitude": 99.25115967,
            "Provider": "PEA"
        },
        {
            "Name": "หัวไทร",
            "description": "221 หมู่11 ตำบล หัวไทร อำเภอ หัวไทร นครศรีธรรมราช 80170 PEA VOLTA หัวไทร",
            "Power": "25 kW",
            "Latitude": 8.04808903,
            "Longitude": 100.27180481,
            "Provider": "PEA"
        },
        {
            "Name": "พัทลุง",
            "description": "ตำบล เขาเจียก อำเภอเมืองพัทลุง พัทลุง 93000 PEA VOLTA พัทลุง",
            "Power": "25 kW",
            "Latitude": 7.60148478,
            "Longitude": 100.03018951,
            "Provider": "PEA"
        },
        {
            "Name": "อินทร์บุรี",
            "description": "115 หมู่1 ถนนเอเซีย ตำบลน้ำตาล อำเภออินทร์บุรี จังหวัดสิงห์บุรี 16110 Thailand PEA VOLTA อินทร์บุรี",
            "Power": "25 kW",
            "Latitude": 15.00669289,
            "Longitude": 100.34501648,
            "Provider": "PEA"
        },
        {
            "Name": "พรหมบุรี",
            "description": "66 ตำบล บ้านหม้อ อำเภอพรหมบุรี สิงห์บุรี 16120 PEA VOLTA พรหมบุรี",
            "Power": "25 kW",
            "Latitude": 14.76882744,
            "Longitude": 100.44991302,
            "Provider": "PEA"
        },
        {
            "Name": "บางจาก เมืองกาญจนบุรี",
            "description": "ตำบล ปากแพรก อำเภอเมืองกาญจนบุรี กาญจนบุรี 71000 PEA VOLTA บางจาก เมืองกาญจนบุรี #1",
            "Power": "50 kW",
            "Latitude": 14.03766346,
            "Longitude": 99.57819366,
            "Provider": "PEA"
        },
        {
            "Name": "บางจาก เมืองสุพรรณบุรี",
            "description": "ตำบล ท่าระหัด อำเภอเมืองสุพรรณบุรี สุพรรณบุรี 72000 PEA VOLTA บางจาก เมืองสุพรรณบุรี #1",
            "Power": "50 kW",
            "Latitude": 14.43198872,
            "Longitude": 100.143013,
            "Provider": "PEA"
        },
        {
            "Name": "บางจาก สองพี่น้อง (ทุ่งคอก)",
            "description": "ตำบล ทุ่งคอก อำเภอสองพี่น้อง สุพรรณบุรี 72110 PEA VOLTA บางจาก สองพี่น้อง (ทุ่งคอก) #1",
            "Power": "50 kW",
            "Latitude": 14.17240334,
            "Longitude": 99.95610809,
            "Provider": "PEA"
        },
        {
            "Name": "หาดใหญ่",
            "description": "75 ถนน เพชรเกษม ซอย 15/2 ตำบล หาดใหญ่ อำเภอหาดใหญ่ สงขลา 90110 PEA VOLTA หาดใหญ่",
            "Power": "25 kW",
            "Latitude": 7.01746988,
            "Longitude": 100.49626923,
            "Provider": "PEA"
        },
        {
            "Name": "ม่วงสามสิบ",
            "description": "ตำบล ม่วงสามสิบ อำเภอ ม่วงสามสิบ อุบลราชธานี 34140 PEA VOLTA ม่วงสามสิบ",
            "Power": "25 kW",
            "Latitude": 15.52629185,
            "Longitude": 104.71417236,
            "Provider": "PEA"
        },
        {
            "Name": "เมืองบุรีรัมย์",
            "description": "190 หมู่ 8 ถนนบุรีรัมย์-พุทไธสง ตำบลชุมเห็ด อำเภอเมืองบุรีรัมย์ จังหวัดบุรีรัมย์ รหัสไปรษณีย์ 31000 PEA VOLTA เมืองบุรีรัมย์",
            "Power": "25 kW",
            "Latitude": 15.03031445,
            "Longitude": 103.10186768,
            "Provider": "PEA"
        },
        {
            "Name": "เมืองชัยภูมิ",
            "description": "123 หมู่10 ถนนนิเวศรัตน์ ตำบลโพนทอง อำเภอเมืองชัยภูมิ จังหวัดชัยภูมิ 36000 PEA VOLTA เมืองชัยภูมิ",
            "Power": "25 kW",
            "Latitude": 15.82796764,
            "Longitude": 102.08486938,
            "Provider": "PEA"
        },
        {
            "Name": "เมืองสุรินทร์",
            "description": "สาขา 164 9 เทศบาล 4 ตำบล ในเมือง อำเภอเมืองสุรินทร์ สุรินทร์ 32000 PEA VOLTA เมืองสุรินทร์",
            "Power": "25 kW",
            "Latitude": 14.90936279,
            "Longitude": 103.50759888,
            "Provider": "PEA"
        },
        {
            "Name": "หางดง",
            "description": "197 หมู่ที่ 8 ตำบล หนองแก๋ว อำเภอหางดง เชียงใหม่ 50230 PEA VOLTA หางดง",
            "Power": "25 kW",
            "Latitude": 18.68805313,
            "Longitude": 98.92817688,
            "Provider": "PEA"
        },
        {
            "Name": "แม่ริม",
            "description": "107 ตำบล ริมเหนือ อำเภอแม่ริม เชียงใหม่ 50180 PEA VOLTA แม่ริม",
            "Power": "25 kW",
            "Latitude": 18.92609978,
            "Longitude": 98.93927765,
            "Provider": "PEA"
        },
        {
            "Name": "สันทราย",
            "description": "151 หมู่ 4 ถนนสันทราย-พร้าว ตำบลป่าไผ่ อำเภอสันทราย จังหวัดเชียงใหม่ 50210 PEA VOLTA สันทราย",
            "Power": "25 kW",
            "Latitude": 18.87583351,
            "Longitude": 99.04486084,
            "Provider": "PEA"
        },
        {
            "Name": "นครราชสีมา (หัวทะเล)",
            "description": "หมู่ที่ 1 69 ถนน เพชรมาตุคลา ตำบล พะเนา อำเภอเมืองนครราชสีมา นครราชสีมา 30000 PEA VOLTA นครราชสีมา 2 (หัวทะเล)",
            "Power": "25 kW",
            "Latitude": 14.98846817,
            "Longitude": 102.19113922,
            "Provider": "PEA"
        },
        {
            "Name": "บางเลน",
            "description": "1/1 หมู่ 6 ถนนดอนตูม-บางเลน ต.บางเลน อ.บางเลน นครปฐม 73130 PEA VOLTA บางเลน",
            "Power": "25 kW",
            "Latitude": 14.00584126,
            "Longitude": 100.17254639,
            "Provider": "PEA"
        },
        {
            "Name": "นครนายก",
            "description": "138 หมู่ที่ 5 ตำบลบ้านใหญ่ อำเภอเมืองนครนายก นครนายก 26000 PEA VOLTA นครนายก",
            "Power": "25 kW",
            "Latitude": 14.21732998,
            "Longitude": 101.22705078,
            "Provider": "PEA"
        },
        {
            "Name": "ปทุมธานี",
            "description": "21/42 หมู่3 ถนน รังสิต-ปทุมธานี ตำบล บางพูน อำเภอเมืองปทุมธานี ปทุมธานี 12000 PEA VOLTA ปทุมธานี 2",
            "Power": "25 kW",
            "Latitude": 13.99131203,
            "Longitude": 100.5816803,
            "Provider": "PEA"
        },
        {
            "Name": "ธัญบุรี",
            "description": "41/5 หมู่2 ถ.รังสิต-นครนายก ต.บึงยี่โถ อ.ธัญบุรี จ.ปธุมธานี 12130 PEA VOLTA ธัญบุรี",
            "Power": "25 kW",
            "Latitude": 13.99793816,
            "Longitude": 100.67383575,
            "Provider": "PEA"
        },
        {
            "Name": "บึงสามพัน",
            "description": "ตำบล ซับสมอทอด อำเภอบึงสามพัน เพชรบูรณ์ 67160 PEA VOLTA บึงสามพัน",
            "Power": "25 kW",
            "Latitude": 15.81141567,
            "Longitude": 101.00747681,
            "Provider": "PEA"
        },
        {
            "Name": "ละงู",
            "description": "หมู่ที่ 1 323 ตำบล กำแพง อำเภอ ละงู สตูล 91110 PEA VOLTA ละงู",
            "Power": "25 kW",
            "Latitude": 6.90512514,
            "Longitude": 99.78910065,
            "Provider": "PEA"
        },
        {
            "Name": "เมืองชัยนาท",
            "description": "345/6 ถ.พหลโยธิน ตำบล บ้านกล้วย อำเภอเมืองชัยนาท ชัยนาท 17000 PEA VOLTA เมืองชัยนาท #2",
            "Power": "50 kW",
            "Latitude": 15.19277,
            "Longitude": 100.13533783,
            "Provider": "PEA"
        },
        {
            "Name": "เวียงสา",
            "description": "301 หมู่ที่ 10 ตำบล กลางเวียง อำเภอเวียงสา น่าน 55110 PEA VOLTA เวียงสา #1",
            "Power": "50 kW",
            "Latitude": 18.56295776,
            "Longitude": 100.72535706,
            "Provider": "PEA"
        },
        {
            "Name": "ปัว",
            "description": "292 ม.1 ต.ปัว อ.ปัว จ.น่าน 55120 PEA VOLTA ปัว #1",
            "Power": "50 kW",
            "Latitude": 19.18110466,
            "Longitude": 100.89305878,
            "Provider": "PEA"
        },
        {
            "Name": "เมืองอุตรดิตถ์",
            "description": "174 บรมอาสน์ ถนน บรมอาสน์ ตำบล ท่าอิฐ อำเภอเมืองอุตรดิตถ์ อุตรดิตถ์ 53000 PEA VOLTA เมืองอุตรดิตถ์ #1",
            "Power": "50 kW",
            "Latitude": 17.60806847,
            "Longitude": 100.07946777,
            "Provider": "PEA"
        },
        {
            "Name": "เมืองน่าน",
            "description": "82/15 ถนน มหายศ ตำบล ในเวียง อำเภอเมืองน่าน น่าน 55000 PEA VOLTA เมืองน่าน #1",
            "Power": "50 kW",
            "Latitude": 18.79540062,
            "Longitude": 100.78266144,
            "Provider": "PEA"
        },
        {
            "Name": "บางจาก โนนสูง",
            "description": "ตำบล ดอนหวาย อำเภอโนนสูง นครราชสีมา 30160 PEA VOLTA บางจาก โนนสูง #2",
            "Power": "50 kW",
            "Latitude": 15.09766102,
            "Longitude": 102.27072144,
            "Provider": "PEA"
        },
        {
            "Name": "สันกำแพง",
            "description": "93 ถนน เชียงใหม่- ดอยสะเก็ด ตำบล สันกำแพง อำเภอสันกำแพง เชียงใหม่ 50130 PEA VOLTA สันกำแพง",
            "Power": "25 kW",
            "Latitude": 18.75284576,
            "Longitude": 99.10469055,
            "Provider": "PEA"
        },
        {
            "Name": "บางจาก เมืองบุรีรัมย์ (โฮมโปร)",
            "description": "500 หมู่9 ตำบล อิสาณ อำเภอเมืองบุรีรัมย์ บุรีรัมย์ 31000 PEA VOLTA บางจาก เมืองบุรีรัมย์ (โฮมโปร) #1",
            "Power": "50 kW",
            "Latitude": 14.98336124,
            "Longitude": 103.07962799,
            "Provider": "PEA"
        },
        {
            "Name": "บางจาก บายพาสโคราช (กม.11)",
            "description": "ตำบล หนองกระทุ่ม อำเภอเมืองนครราชสีมา นครราชสีมา 30000 PEA VOLTA บางจาก บายพาสโคราช (กม.11) #1",
            "Power": "50 kW",
            "Latitude": 15.02720547,
            "Longitude": 102.08203125,
            "Provider": "PEA"
        },
        {
            "Name": "พิบูลมังสาหาร",
            "description": "ตำบล กุดชมภู อำเภอ พิบูลมังสาหาร อุบลราชธานี 34110 PEA VOLTA พิบูลมังสาหาร",
            "Power": "25 kW",
            "Latitude": 15.23124886,
            "Longitude": 105.23967743,
            "Provider": "PEA"
        },
        {
            "Name": "เขื่องใน",
            "description": "ตำบล ยางขี้นก อำเภอ เขื่องใน อุบลราชธานี 34150 PEA VOLTA เขื่องใน",
            "Power": "25 kW",
            "Latitude": 15.42167282,
            "Longitude": 104.54030609,
            "Provider": "PEA"
        },
        {
            "Name": "นครปฐม",
            "description": "242/15 ถนน 25 มกรา ตําบล พระปฐมเจดีย์ อําเภอเมืองนครปฐม จังหวัดนครปฐม 73000 PEA VOLTA นครปฐม",
            "Power": "25 kW",
            "Latitude": 13.82365704,
            "Longitude": 100.06893158,
            "Provider": "PEA"
        },
        {
            "Name": "มหาชนะชัย",
            "description": "129 หมู่6 ตำบล คูเมือง อำเภอ มหาชนะชัย ยโสธร 35130 PEA VOLTA มหาชนะชัย",
            "Power": "25 kW",
            "Latitude": 15.49993706,
            "Longitude": 104.21760559,
            "Provider": "PEA"
        },
        {
            "Name": "อุดรธานี",
            "description": "123 หมู่ 5 ถนน ช้างเผือก ตำบล นาดี อำเภอเมืองอุดรธานี อุดรธานี 41000 PEA VOLTA อุดรธานี",
            "Power": "25 kW",
            "Latitude": 17.40585136,
            "Longitude": 102.78028107,
            "Provider": "PEA"
        },
        {
            "Name": "บ้านไผ่",
            "description": "65 หมู่ 2 ถ. มิตรภาพ ตำบล บ้านไผ่ ขอนแก่น 40110 PEA VOLTA บ้านไผ่",
            "Power": "25 kW",
            "Latitude": 16.05342484,
            "Longitude": 102.7161026,
            "Provider": "PEA"
        },
        {
            "Name": "สวนผึ้ง",
            "description": "174 หมู่5 ตำบลท่าเคย อำเภอสวนผึ้ง จังหวัดราชบุรี 70180 PEA VOLTA สวนผึ้ง",
            "Power": "25 kW",
            "Latitude": 13.54117107,
            "Longitude": 99.40319061,
            "Provider": "PEA"
        },
        {
            "Name": "น้ำพอง",
            "description": "ตำบล วังชัย อำเภอน้ำพอง ขอนแก่น 40140 PEA VOLTA น้ำพอง",
            "Power": "25 kW",
            "Latitude": 16.71722794,
            "Longitude": 102.8693924,
            "Provider": "PEA"
        },
        {
            "Name": "ขอนแก่น",
            "description": "44 ถนนกสิกรทุ่งสร้าง ตำบลในเมือง อำเภอเมืองขอนแก่น ขอนแก่น 40000 PEA VOLTA ขอนแก่น",
            "Power": "25 kW",
            "Latitude": 16.44115829,
            "Longitude": 102.84038544,
            "Provider": "PEA"
        },
        {
            "Name": "สว่างแดนดิน",
            "description": "22 ตำบล สว่างแดนดิน อำเภอสว่างแดนดิน สกลนคร 47110 PEA VOLTA สว่างแดนดิน #1",
            "Power": "50 kW",
            "Latitude": 17.4682579,
            "Longitude": 103.49375153,
            "Provider": "PEA"
        },
        {
            "Name": "เกาะสมุย",
            "description": "ตำบล อ่างทอง อำเภอเกาะสมุย สุราษฎร์ธานี 84140 PEA VOLTA เกาะสมุย",
            "Power": "25 kW",
            "Latitude": 9.52032089,
            "Longitude": 99.93880463,
            "Provider": "PEA"
        },
        {
            "Name": "แม่สะเรียง",
            "description": "255/33 ตำบล บ้านกาด อำเภอแม่สะเรียง แม่ฮ่องสอน 58110 PEA VOLTA แม่สะเรียง #2",
            "Power": "50 kW",
            "Latitude": 18.1830368,
            "Longitude": 97.93423462,
            "Provider": "PEA"
        },
        {
            "Name": "เมืองอุทัยธานี",
            "description": "228 ซอย ตั้งใจงาม ตำบล น้ำซึม อำเภอเมืองอุทัยธานี อุทัยธานี 61000 PEA VOLTA เมืองอุทัยธานี #2",
            "Power": "50 kW",
            "Latitude": 15.36762238,
            "Longitude": 100.01343536,
            "Provider": "PEA"
        },
        {
            "Name": "ปากคาด",
            "description": "ถนนชยางกูร ตำบล ปากคาด อำเภอ ปากคาด บึงกาฬ 38220 PEA VOLTA ปากคาด #2",
            "Power": "50 kW",
            "Latitude": 18.31761932,
            "Longitude": 103.31438446,
            "Provider": "PEA"
        },
        {
            "Name": "หนองไผ่",
            "description": "999/1 หมู่ 3 ถนน สระบุรี-หล่มสัก ตำบล หนองไผ่ อำเภอหนองไผ่ เพชรบูรณ์ 67140 PEA VOLTA หนองไผ่ #2",
            "Power": "50 kW",
            "Latitude": 15.99513721,
            "Longitude": 101.06504822,
            "Provider": "PEA"
        },
        {
            "Name": "เมืองบึงกาฬ",
            "description": "ตำบล วิศิษฐ์ อำเภอเมืองบึงกาฬ บึงกาฬ 38000 PEA VOLTA เมืองบึงกาฬ #2",
            "Power": "50 kW",
            "Latitude": 18.32321548,
            "Longitude": 103.63355255,
            "Provider": "PEA"
        },
        {
            "Name": "เมืองหนองบัวลำภู",
            "description": "255 หมู่ 10, ถนนอุดร - เลย, ตำบลลำภู อำเภอเมืองหนองบัวลำภู จังหวัดหนองบัวลำภู, 39000 PEA VOLTA เมืองหนองบัวลำภู #2",
            "Power": "50 kW",
            "Latitude": 17.2111702,
            "Longitude": 102.45436096,
            "Provider": "PEA"
        },
        {
            "Name": "ตะกั่วป่า",
            "description": "23/19 ถนน เพชรเกษม หมู่ 1 โคกเคียน อำเภอตะกั่วป่า พังงา 82110 PEA VOLTA ตะกั่วป่า #1",
            "Power": "50 kW",
            "Latitude": 8.871562,
            "Longitude": 98.36369324,
            "Provider": "PEA"
        },
        {
            "Name": "บางจาก เมืองชัยภูมิ",
            "description": "ตำบล หนองนาแซง อำเภอเมืองชัยภูมิ ชัยภูมิ 36000 PEA VOLTA บางจาก เมืองชัยภูมิ #2",
            "Power": "50 kW",
            "Latitude": 15.7711668,
            "Longitude": 102.02561188,
            "Provider": "PEA"
        },
        {
            "Name": "บางจาก เมืองนครพนม",
            "description": "ตำบล กุรุคุ อำเภอเมืองนครพนม นครพนม 48000 PEA VOLTA บางจาก เมืองนครพนม #2",
            "Power": "50 kW",
            "Latitude": 17.32114983,
            "Longitude": 104.55808258,
            "Provider": "PEA"
        },
        {
            "Name": "บางจาก เมืองอุดรธานี (บ้านขาว)",
            "description": "ตำบล บ้านขาว อำเภอเมืองอุดรธานี อุดรธานี 41000 PEA VOLTA บางจาก เมืองอุดรธานี (บ้านขาว) #1",
            "Power": "50 kW",
            "Latitude": 17.51766777,
            "Longitude": 102.7999115,
            "Provider": "PEA"
        },
        {
            "Name": "บางจาก เมืองอุดรธานี (สนามบิน)",
            "description": "ตำบลเชียงพิณ อำเภอเมืองอุดรธานี อุดรธานี 41000 PEA VOLTA บางจาก เมืองอุดรธานี (สนามบิน) #1",
            "Power": "50 kW",
            "Latitude": 17.3934021,
            "Longitude": 102.7660675,
            "Provider": "PEA"
        },
        {
            "Name": "บางจาก บายพาสสุราษฎร์ (กม.5)",
            "description": "ตำบลมะขามเตี้ย อำเภอเมืองสุราษฎร์ธานี สุราษฎร์ธานี 84000 PEA VOLTA บางจาก บายพาสสุราษฎร์ (กม.5) #1",
            "Power": "50 kW",
            "Latitude": 9.11515427,
            "Longitude": 99.34633636,
            "Provider": "PEA"
        },
        {
            "Name": "บางจาก ปราสาท",
            "description": "ตำบล ตานี อำเภอปราสาท สุรินทร์ 32140 PEA VOLTA บางจาก ปราสาท #1",
            "Power": "50 kW",
            "Latitude": 14.62068367,
            "Longitude": 103.27776337,
            "Provider": "PEA"
        },
        {
            "Name": "บางจาก สิชล",
            "description": "3/1 หมู่ที่ 10 ถ. สุราษธานี - นครศรีธรรมราช ตำบล เปลี่ยน อำเภอ สิชล นครศรีธรรมราช 80120 PEA VOLTA บางจาก สิชล #1",
            "Power": "50 kW",
            "Latitude": 8.84643841,
            "Longitude": 99.90041351,
            "Provider": "PEA"
        },
        {
            "Name": "บางจาก อ่าวลึก",
            "description": "ตำบล อ่าวลึกเหนือ อำเภอ อ่าวลึก กระบี่ 81110 PEA VOLTA บางจาก อ่าวลึก #2",
            "Power": "50 kW",
            "Latitude": 8.36372757,
            "Longitude": 98.75108337,
            "Provider": "PEA"
        },
        {
            "Name": "พรรณานิคม",
            "description": "ตำบล ช้างมิ่ง อำเภอ พรรณานิคม สกลนคร 47130 PEA VOLTA พรรณานิคม #1",
            "Power": "50 kW",
            "Latitude": 17.36588669,
            "Longitude": 103.82588196,
            "Provider": "PEA"
        },
        {
            "Name": "บางจาก บางเลน",
            "description": "9 /2 ตำบลบางภาษี อำเภอบางเลน นครปฐม 73130 PEA VOLTA บางจาก บางเลน #2",
            "Power": "50 kW",
            "Latitude": 14.01179504,
            "Longitude": 100.21183777,
            "Provider": "PEA"
        },
        {
            "Name": "คาลเท็กซ์ สาขาน้ำมันดาวพนม",
            "description": "654/5 หมู่ 1 ตำบลพนมสารคาม อำเภอพนมสารคาม จังหวัดฉะเชิงเทรา 24120 (เครือข่าย PEA VOLTA) คาลเท็กซ์ สาขาน้ำมันดาวพนม (เครือข่าย PEA VOLTA)",
            "Power": "25 kW",
            "Latitude": 13.74804211,
            "Longitude": 101.35907745,
            "Provider": "PEA"
        },
        {
            "Name": "บางจาก บางละมุง กม.149",
            "description": "ชลบุรี-พัทยา ตำบล โป่ง อำเภอบางละมุง ชลบุรี 20150 PEA VOLTA บางจาก บางละมุง กม.149 #2",
            "Power": "50 kW",
            "Latitude": 12.89881039,
            "Longitude": 100.89715576,
            "Provider": "PEA"
        },
        {
            "Name": "7-11 บาลีฮาย",
            "description": "27/7 พัทยาใต้ 24 เมืองพัทยา อำเภอบางละมุง ชลบุรี 20150 PEA VOLTA 7-Eleven บาลีฮาย",
            "Power": "360 kW",
            "Latitude": 12.92469692,
            "Longitude": 100.86745453,
            "Provider": "PEA"
        },
        {
            "Name": "กุยบุรี",
            "description": "ตำบลสามกระทาย อำเภอกุยบุรี ประจวบคีรีขันธ์ 77150 PEA VOLTA กุยบุรี #2",
            "Power": "50 kW",
            "Latitude": 12.11046505,
            "Longitude": 99.85279083,
            "Provider": "PEA"
        },
        {
            "Name": "เมืองมุกดาหาร",
            "description": "106, ถนนเมืองใหม่, ตำบลมุกดาหาร อำเภอเมืองมุกดาหาร จังหวัดมุกดาหาร, 49000 PEA VOLTA เมืองมุกดาหาร #2",
            "Power": "50 kW",
            "Latitude": 16.54371452,
            "Longitude": 104.69395447,
            "Provider": "PEA"
        },
        {
            "Name": "บางจาก วังน้อย กม.71",
            "description": "ถ. พหลโยธิน ตำบล ชะแมบ อำเภอวังน้อย จังหวัดพระนครศรีอยุธยา 13170 PEA VOLTA บางจาก วังน้อย กม.71 #1",
            "Power": "50 kW",
            "Latitude": 14.2549963,
            "Longitude": 100.76755524,
            "Provider": "PEA"
        },
        {
            "Name": "เมืองปัตตานี",
            "description": "ตำบล รูสะมิแล อำเภอเมืองปัตตานี ปัตตานี 94000 PEA VOLTA เมืองปัตตานี #2",
            "Power": "50 kW",
            "Latitude": 6.88649607,
            "Longitude": 101.24562073,
            "Provider": "PEA"
        },
        {
            "Name": "บางจาก เมืองนราธิวาส",
            "description": "ตำบล ลำภู อำเภอเมืองนราธิวาส นราธิวาส 96000 PEA VOLTA บางจาก เมืองนราธิวาส #2",
            "Power": "50 kW",
            "Latitude": 6.40916204,
            "Longitude": 101.79682922,
            "Provider": "PEA"
        },
        {
            "Name": "บางจาก เขาพนม",
            "description": "ตำบล พรุเตียว อำเภอ เขาพนม กระบี่ 81140 PEA VOLTA บางจาก เขาพนม #1",
            "Power": "50 kW",
            "Latitude": 8.26574326,
            "Longitude": 99.09516907,
            "Provider": "PEA"
        },
        {
            "Name": "เมืองยะลา",
            "description": "ตำบล สะเตงนอก อำเภอเมืองยะลา ยะลา 95000 PEA VOLTA เมืองยะลา #1",
            "Power": "50 kW",
            "Latitude": 6.51528406,
            "Longitude": 101.27098083,
            "Provider": "PEA"
        },
        {
            "Name": "บางจาก โพนทอง",
            "description": "171 หมู่ 2 ตำบลสระนกแก้ว อำเภอ โพนทอง ร้อยเอ็ด 45110 PEA VOLTA บางจาก โพนทอง #2",
            "Power": "50 kW",
            "Latitude": 16.2948761,
            "Longitude": 103.97618866,
            "Provider": "PEA"
        },
        {
            "Name": "เมืองอำนาจเจริญ",
            "description": "332 ม.8 อ.เมือง Chayangkun, ตำบล บุ่ง อำเภอเมืองอำนาจเจริญ อำนาจเจริญ 37000 PEA VOLTA เมืองอำนาจเจริญ #2",
            "Power": "50 kW",
            "Latitude": 15.88847065,
            "Longitude": 104.62494659,
            "Provider": "PEA"
        },
        {
            "Name": "บางจาก สามโคก",
            "description": "ตำบล บางโพธิ์เหนือ อำเภอสามโคก ปทุมธานี 12160 PEA VOLTA บางจาก สามโคก #1",
            "Power": "50 kW",
            "Latitude": 14.03939915,
            "Longitude": 100.52560425,
            "Provider": "PEA"
        },
        {
            "Name": "เมืองแม่ฮ่องสอน",
            "description": "286/3 ถ.แม่ฮ่องสอน-ปาย ตำบล ปางหมู อำเภอเมืองแม่ฮ่องสอน แม่ฮ่องสอน 58000 PEA VOLTA เมืองแม่ฮ่องสอน #1",
            "Power": "50 kW",
            "Latitude": 19.31517792,
            "Longitude": 97.96572113,
            "Provider": "PEA"
        },
        {
            "Name": "เมืองยโสธร",
            "description": "91 ถนน รัตนเขต ตำบลในเมือง อำเภอเมืองยโสธร ยโสธร 35000 PEA VOLTA เมืองยโสธร #1",
            "Power": "50 kW",
            "Latitude": 15.79771805,
            "Longitude": 104.1437149,
            "Provider": "PEA"
        },
        {
            "Name": "บางจาก พยุหะคีรี กม.308",
            "description": "ตำบล ม่วงหัก อำเภอพยุหะคีรี นครสวรรค์ 60130 PEA VOLTA บางจาก พยุหะคีรี กม.308 #1",
            "Power": "50 kW",
            "Latitude": 15.40701675,
            "Longitude": 100.14772034,
            "Provider": "PEA"
        },
        {
            "Name": "บางจาก เมืองกาฬสินธุ์",
            "description": "33, 33/9 ถนน ถีนานนท์ 9 ถนน ถีนานนท์ กาฬสินธุ์ อำเภอเมืองกาฬสินธุ์ กาฬสินธุ์ 46000 PEA VOLTA บางจาก เมืองกาฬสินธุ์ #1",
            "Power": "50 kW",
            "Latitude": 16.44244576,
            "Longitude": 103.51954651,
            "Provider": "PEA"
        },
        {
            "Name": "บางจาก มหาสารคาม (แยกแก่งเลิงจาน)",
            "description": "ตำบล แก่งเลิงจาน อำเภอเมืองมหาสารคาม มหาสารคาม 44000 PEA VOLTA บางจาก มหาสารคาม (แยกแก่งเลิงจาน) #1",
            "Power": "50 kW",
            "Latitude": 16.16606712,
            "Longitude": 103.28245544,
            "Provider": "PEA"
        },
        {
            "Name": "บางจาก เมืองสุโขทัย",
            "description": "41/3 หมู่ 2 ถนนจรดวิถีถ่อง ตำบลปากแคว อำเภอเมืองสุโขทัย สุโขทัย 64000 PEA VOLTA บางจาก เมืองสุโขทัย #1",
            "Power": "50 kW",
            "Latitude": 17.03954315,
            "Longitude": 99.82302094,
            "Provider": "PEA"
        },
        {
            "Name": "บางจาก เมืองอุบลราชธานี (ในเมือง)",
            "description": "258 ถ. แจ้งสนิท ตำบล ในเมือง อำเภอเมืองอุบลราชธานี อุบลราชธานี 34000 PEA VOLTA บางจาก เมืองอุบลราชธานี (ในเมือง) #1",
            "Power": "50 kW",
            "Latitude": 15.25376225,
            "Longitude": 104.8373642,
            "Provider": "PEA"
        },
        {
            "Name": "บางจาก เมืองอุบลราชธานี (หนองขอน)",
            "description": "274 หมู่ 2 ถนนสายอุบล-ตระการ ตำบลไร่น้อย อำเภอเมืองอุบลราชธานี อุบลราชธานี 34000 PEA VOLTA บางจาก เมืองอุบลราชธานี (หนองขอน) #1",
            "Power": "50 kW",
            "Latitude": 15.30442905,
            "Longitude": 104.7590332,
            "Provider": "PEA"
        },
        {
            "Name": "บางจาก แม่สอด",
            "description": "ตำบล แม่สอด อำเภอแม่สอด ตาก 63110 PEA VOLTA บางจาก แม่สอด #1",
            "Power": "50 kW",
            "Latitude": 16.72518921,
            "Longitude": 98.59481049,
            "Provider": "PEA"
        },
        {
            "Name": "บางจาก เมืองพัทลุง",
            "description": "4 หมู่ 1 เขาเจียก เมือง พัทลุง 93000 PEA VOLTA บางจาก เมืองพัทลุง #1",
            "Power": "50 kW",
            "Latitude": 7.61435795,
            "Longitude": 100.05102539,
            "Provider": "PEA"
        },
        {
            "Name": "บางจาก ท่าวุ้ง",
            "description": "346 หมู่ 1 ถนนสายสิงห์บุรี-ลพบุรี ตำบลท่าวุ้ง อำเภอท่าวุ้ง ลพบุรี 15150 PEA VOLTA บางจาก ท่าวุ้ง #1",
            "Power": "50 kW",
            "Latitude": 14.81724644,
            "Longitude": 100.50871277,
            "Provider": "PEA"
        },
        {
            "Name": "บางจาก ไชโย",
            "description": "66/7 ม.1 ต ตำบล จรเข้ร้อง อำเภอไชโย อ่างทอง PEA VOLTA บางจาก ไชโย #1",
            "Power": "50 kW",
            "Latitude": 14.66522598,
            "Longitude": 100.47261047,
            "Provider": "PEA"
        },
        {
            "Name": "สะเดา (พังลา)",
            "description": "300/25 หมู่ที่5 ตำบล พังลา อำเภอสะเดา สงขลา 90170 PEA VOLTA สะเดา (พังลา) #2",
            "Power": "50 kW",
            "Latitude": 6.82061911,
            "Longitude": 100.45912933,
            "Provider": "PEA"
        },
        {
            "Name": "เมืองระนอง",
            "description": "6 202 หมู่ที่ 1 ถ. เพชรเกษม ตำบล บางนอน อำเภอเมืองระนอง ระนอง 85000 PEA VOLTA เมืองระนอง #2",
            "Power": "50 kW",
            "Latitude": 10.00279236,
            "Longitude": 98.65683746,
            "Provider": "PEA"
        },
        {
            "Name": "เมืองสงขลา",
            "description": "ตำบลพะวง อำเภอเมืองสงขลา สงขลา 90100 PEA VOLTA เมืองสงขลา #2",
            "Power": "50 kW",
            "Latitude": 7.14549303,
            "Longitude": 100.56394958,
            "Provider": "PEA"
        },
        {
            "Name": "บางจาก เมืองสตูล",
            "description": "ตำบล ควนโพธิ์ อำเภอเมืองสตูล สตูล 91140 PEA VOLTA บางจาก เมืองสตูล #1",
            "Power": "50 kW",
            "Latitude": 6.74583387,
            "Longitude": 100.03443909,
            "Provider": "PEA"
        },
        {
            "Name": "บางจาก ท่าใหม่ ขาเข้า กม.307",
            "description": "61/4 หมู่ 3 ถนนสุขุมวิท ตำบลทุ่งเบญจา อำเภอท่าใหม่ จันทบุรี 22170 PEA VOLTA บางจาก ท่าใหม่ ขาเข้า กม.307 #1",
            "Power": "50 kW",
            "Latitude": 12.71715832,
            "Longitude": 101.9769516,
            "Provider": "PEA"
        },
        {
            "Name": "กระบุรี",
            "description": "ตำบล ปากจั่น อำเภอ กระบุรี ระนอง 85110 PEA VOLTA กระบุรี #1",
            "Power": "50 kW",
            "Latitude": 10.50767136,
            "Longitude": 98.82497406,
            "Provider": "PEA"
        },
        {
            "Name": "กะเปอร์",
            "description": "Lot 1, 127 ถ. เพชรเกษม ตำบล กะเปอร์ อำเภอ กะเปอร์ ระนอง 85120 PEA VOLTA กะเปอร์ #1",
            "Power": "50 kW",
            "Latitude": 9.58308697,
            "Longitude": 98.5918808,
            "Provider": "PEA"
        },
        {
            "Name": "ป่าบอน",
            "description": "205 ตำบล ป่าบอน อำเภอ ป่าบอน พัทลุง 93170 PEA VOLTA ป่าบอน #1",
            "Power": "50 kW",
            "Latitude": 7.26668882,
            "Longitude": 100.17304993,
            "Provider": "PEA"
        },
        {
            "Name": "บางจาก กระทุ่มแบน",
            "description": "8/11 หมู่ 6 ถ. เพชรเกษม ตำบลอ้อมน้อย อำเภอกระทุ่มแบน สมุทรสาคร 74130 PEA VOLTA บางจาก กระทุ่มแบน #1",
            "Power": "50 kW",
            "Latitude": 13.70516682,
            "Longitude": 100.30725098,
            "Provider": "PEA"
        },
        {
            "Name": "บางจาก พานทอง",
            "description": "หมู่ที่ 1 105 ตำบล บ้านเก่า อำเภอพานทอง ชลบุรี 20160 PEA VOLTA บางจาก พานทอง #1",
            "Power": "50 kW",
            "Latitude": 13.45387077,
            "Longitude": 101.02370453,
            "Provider": "PEA"
        },
        {
            "Name": "บางจาก เมืองสมุทรสาคร",
            "description": "99/1 ต.นาโคก อ.เมืองสมุทรสาคร สมุทรสาคร 74000 PEA VOLTA บางจาก เมืองสมุทรสาคร #2",
            "Power": "50 kW",
            "Latitude": 13.4669733,
            "Longitude": 100.10474396,
            "Provider": "PEA"
        },
        {
            "Name": "บางจาก ชะอำ ขาเข้า (กม.188)",
            "description": "719, 52 ถ. เพชรเกษม ตำบล เขาใหญ่ อำเภอชะอำ เพชรบุรี 76120 PEA VOLTA บางจาก ชะอำ ขาเข้า (กม.188) #2",
            "Power": "50 kW",
            "Latitude": 12.81254196,
            "Longitude": 99.94229126,
            "Provider": "PEA"
        },
        {
            "Name": "บางจาก ทุ่งใหญ่",
            "description": "ตำบล ทุ่งใหญ่ อำเภอ ทุ่งใหญ่ นครศรีธรรมราช 80240 PEA VOLTA บางจาก ทุ่งใหญ่ #2",
            "Power": "50 kW",
            "Latitude": 8.37022209,
            "Longitude": 99.41673279,
            "Provider": "PEA"
        },
        {
            "Name": "บางจาก ถลาง",
            "description": "ตำบล ไม้ขาว อำเภอถลาง ภูเก็ต 83110 PEA VOLTA บางจาก ถลาง #1",
            "Power": "50 kW",
            "Latitude": 7.98455,
            "Longitude": 98.35947418,
            "Provider": "PEA"
        },
        {
            "Name": "บางจาก บางกล่ำ",
            "description": "250 ตำบล ท่าช้าง อำเภอบางกล่ำ สงขลา 90110 PEA VOLTA บางจาก บางกล่ำ #1",
            "Power": "50 kW",
            "Latitude": 7.02336311,
            "Longitude": 100.40480804,
            "Provider": "PEA"
        },
        {
            "Name": "สถานีโดมินิค คาร์วอซ บางแสน",
            "description": "578 5 ถ. สุขุมวิท ตำบลแสนสุข อำเภอเมืองชลบุรี ชลบุรี 20130 สถานีโดมินิค คาร์วอซ บางแสน (เครือข่าย PEA VOLTA)",
            "Power": "40 kW",
            "Latitude": 13.26145077,
            "Longitude": 100.93330383,
            "Provider": "PEA"
        },
        {
            "Name": "บางจาก สบปราบ",
            "description": "เลขที่ 149 หมู่ 15 149 ตำบล สบปราบ อำเภอสบปราบ ลำปาง 52170 PEA VOLTA บางจาก สบปราบ #1",
            "Power": "50 kW",
            "Latitude": 17.90246201,
            "Longitude": 99.34094238,
            "Provider": "PEA"
        },
        {
            "Name": "บางจาก เมืองนครศรีธรรมราช (อ้อมค่าย)",
            "description": "30 25, ตำบล ปากพูน เมือง, นครศรีธรรมราช 80000 PEA VOLTA บางจาก เมืองนครศรีธรรมราช (อ้อมค่าย) #1",
            "Power": "50 kW",
            "Latitude": 8.45973206,
            "Longitude": 99.96481323,
            "Provider": "PEA"
        },
        {
            "Name": "บางจาก เมืองสระบุรี (บีอเวนิว)",
            "description": "510 43 ถ. พหลโยธิน ตำบล ปากเพรียว อำเภอเมือง สระบุรี 18000 PEA VOLTA บางจาก เมืองสระบุรี (บี5 อเวนิว) #1",
            "Power": "50 kW",
            "Latitude": 14.5396843,
            "Longitude": 100.91047668,
            "Provider": "PEA"
        },
        {
            "Name": "บางจาก ลำลูกกา",
            "description": "ทางหลวง3004 ลำลูกกาคลอง7-ธัญบุรี ตำบล บึงคำพร้อย อำเภอลำลูกกา ปทุมธานี PEA VOLTA บางจาก ลำลูกกา #1",
            "Power": "50 kW",
            "Latitude": 13.93445969,
            "Longitude": 100.74487305,
            "Provider": "PEA"
        },
        {
            "Name": "บางจาก ศรีราชา กม.",
            "description": "เทศบาลนครแหลมฉบัง อำเภอบางละมุง ชลบุรี PEA VOLTA บางจาก ศรีราชา กม.4 #1",
            "Power": "50 kW",
            "Latitude": 13.12040138,
            "Longitude": 101.02589417,
            "Provider": "PEA"
        },
        {
            "Name": "บางจาก บางน้ำเปรี้ยว",
            "description": "5/5 หมู่ 2 ตำบลหมอนทอง อำเภอบางน้ำเปรี้ยว ฉะเชิงเทรา 24150 PEA VOLTA บางจาก บางน้ำเปรี้ยว #1",
            "Power": "50 kW",
            "Latitude": 13.87193966,
            "Longitude": 101.04439545,
            "Provider": "PEA"
        },
        {
            "Name": "บางจาก บางปะหัน",
            "description": "46 หมู่ 4 สายเอเซีย กม.39, อำเภอบางปะหัน PEA VOLTA บางจาก บางปะหัน #1",
            "Power": "50 kW",
            "Latitude": 14.49155426,
            "Longitude": 100.5246048,
            "Provider": "PEA"
        },
        {
            "Name": "บางจาก เมืองกระบี่ กม.949",
            "description": "169/1 หมู่ 4 ตำบลเขาคราม อำเภอเมืองกระบี่ กระบี่ 81000 PEA VOLTA บางจาก เมืองกระบี่ กม.949 #1",
            "Power": "50 kW",
            "Latitude": 8.26291084,
            "Longitude": 98.80643463,
            "Provider": "PEA"
        },
        {
            "Name": "บางจาก เมืองขอนแก่น (ถ.มะลิวัลย์)",
            "description": "298 ถนนมลิวรรณ ตำบลบ้านเป็ด อำเภอเมืองขอนแก่น ขอนแก่น 40000 PEA VOLTA บางจาก เมืองขอนแก่น (ถ.มะลิวัลย์) #1",
            "Power": "50 kW",
            "Latitude": 16.44989014,
            "Longitude": 102.75696564,
            "Provider": "PEA"
        },
        {
            "Name": "บางจาก เมืองเชียงราย",
            "description": "ตำบลสันทราย อำเภอเมืองเชียงราย เชียงราย 57000 PEA VOLTA บางจาก เมืองเชียงราย #1",
            "Power": "50 kW",
            "Latitude": 19.83996773,
            "Longitude": 99.79504395,
            "Provider": "PEA"
        },
        {
            "Name": "เชียงดาว",
            "description": "429 หมู่ 1 ตำบล แม่นะ อำเภอเชียงดาว เชียงใหม่ 50170 PEA VOLTA เชียงดาว #1",
            "Power": "50 kW",
            "Latitude": 19.34524155,
            "Longitude": 98.96035767,
            "Provider": "PEA"
        },
        {
            "Name": "บางจาก นาวัง",
            "description": "99 หมู่ 6 ตำบลเทพคีรี อำเภอ นาวัง หนองบัวลำภู 39170 PEA VOLTA บางจาก นาวัง #1",
            "Power": "50 kW",
            "Latitude": 17.32109261,
            "Longitude": 102.10904694,
            "Provider": "PEA"
        },
        {
            "Name": "หัวหิน",
            "description": "2/7 ถ.เพชรเกษม ต.หนองแก อ.หัวหิน จ.ประจวบคีรีขันธ์ 77110 Tel: 0-3251-2215  Fax :  PEA VOLTA หัวหิน",
            "Power": "50 kW",
            "Latitude": 12.55186462,
            "Longitude": 99.96103668,
            "Provider": "PEA"
        },
        {
            "Name": "สถานีชาร์จ พาข้าวโคราช",
            "description": "ห้างสรรพสินค้า พาข้าวโคราช 399 ถนนมิตรภาพ-หนองคาย ต.ในเมือง อ.เมืองนครราชสีมา จ.นครราชสีมา 30000 (ร่วมเครือข่าย PEA VOLTA) สถานีชาร์จ พาข้าวโคราช #1 (เครือข่าย PEA VOLTA)",
            "Power": "40 kW",
            "Latitude": 14.98742294,
            "Longitude": 102.09421539,
            "Provider": "PEA"
        },
        {
            "Name": "อ่างทอง",
            "description": "ตำบล โพสะ อำเภอเมืองอ่างทอง อ่างทอง 14000 PEA VOLTA อ่างทอง",
            "Power": "25 kW",
            "Latitude": 14.58588791,
            "Longitude": 100.45501709,
            "Provider": "PEA"
        },
        {
            "Name": "ศรีราชา",
            "description": "65 ถ. สุขุมวิท อำเภอศรีราชา ชลบุรี 20110 PEA VOLTA ศรีราชา",
            "Power": "25 kW",
            "Latitude": 13.17165947,
            "Longitude": 100.93170929,
            "Provider": "PEA"
        },
        {
            "Name": "สังขละบุรี",
            "description": "ตำบลหนองลู อำเภอสังขละบุรี จังหวัดกาญจนบุรี 71240 PEA VOLTA สังขละบุรี",
            "Power": "25 kW",
            "Latitude": 15.15727901,
            "Longitude": 98.44969177,
            "Provider": "PEA"
        },
        {
            "Name": "ทองผาภูมิ",
            "description": "160/6 หมู่ที่ 1 ตำบลท่าขนุน อำเภอทองผาภูมิ จังหวัดกาจนบุรี 71180 PEA VOLTA ทองผาภูมิ",
            "Power": "25 kW",
            "Latitude": 14.74965954,
            "Longitude": 98.62330627,
            "Provider": "PEA"
        },
        {
            "Name": "ศรีมหาโพธิ",
            "description": "หมู่ที่ 9 145 ตำบล ศรีมหาโพธิ อำเภอศรีมหาโพธิ ปราจีนบุรี 25140 PEA VOLTA ศรีมหาโพธิ",
            "Power": "25 kW",
            "Latitude": 13.94896221,
            "Longitude": 101.51259613,
            "Provider": "PEA"
        },
        {
            "Name": "ขลุง",
            "description": "3 ตำบล ขลุง อำเภอ ขลุง จันทบุรี 22110 PEA VOLTA ขลุง",
            "Power": "25 kW",
            "Latitude": 12.45309639,
            "Longitude": 102.24195099,
            "Provider": "PEA"
        },
        {
            "Name": "แกลง",
            "description": "ตำบลทุ่งควายกิน อำเภอแกลง ระยอง 21110 PEA VOLTA แกลง",
            "Power": "25 kW",
            "Latitude": 12.78307819,
            "Longitude": 101.68789673,
            "Provider": "PEA"
        },
        {
            "Name": "บึง",
            "description": "บึง อำเภอศรีราชา ชลบุรี 20230 PEA VOLTA บึง",
            "Power": "25 kW",
            "Latitude": 13.07476902,
            "Longitude": 101.02250671,
            "Provider": "PEA"
        },
        {
            "Name": "บางปะกง",
            "description": "ตำบล บางปะกง อำเภอบางปะกง ฉะเชิงเทรา 24130 PEA VOLTA บางปะกง",
            "Power": "25 kW",
            "Latitude": 13.50337219,
            "Longitude": 100.9940033,
            "Provider": "PEA"
        },
        {
            "Name": "เสนา",
            "description": "ตำบล บางนมโค วิเชียรบุรี, จังหวัดพระนครศรีอยุธยา 13110 PEA VOLTA เสนา",
            "Power": "25 kW",
            "Latitude": 14.31366444,
            "Longitude": 100.41654968,
            "Provider": "PEA"
        },
        {
            "Name": "อู่ทอง",
            "description": "ตำบล อู่ทอง อำเภออู่ทอง สุพรรณบุรี 72160 PEA VOLTA อู่ทอง",
            "Power": "25 kW",
            "Latitude": 14.35463524,
            "Longitude": 99.87766266,
            "Provider": "PEA"
        },
        {
            "Name": "สามชุก",
            "description": "ตำบล สามชุก อำเภอสามชุก สุพรรณบุรี 72130 PEA VOLTA สามชุก",
            "Power": "25 kW",
            "Latitude": 14.75414658,
            "Longitude": 100.09754944,
            "Provider": "PEA"
        },
        {
            "Name": "ดำเนินสะดวก",
            "description": "ตำบล ดำเนินสะดวก อำเภอดำเนินสะดวก ราชบุรี 70130 PEA VOLTA ดำเนินสะดวก",
            "Power": "25 kW",
            "Latitude": 13.52127647,
            "Longitude": 99.96343994,
            "Provider": "PEA"
        },
        {
            "Name": "ปากน้ำชุมพร",
            "description": "339/44, 86120, ตำบล ปากน้ำ อำเภอเมืองชุมพร ชุมพร 86120 PEA VOLTA ปากน้ำชุมพร",
            "Power": "25 kW",
            "Latitude": 10.42825985,
            "Longitude": 99.24240112,
            "Provider": "PEA"
        },
        {
            "Name": "โคกขาม",
            "description": "ตำบล โคกขาม อำเภอเมืองสมุทรสาคร สมุทรสาคร 74000 PEA VOLTA โคกขาม",
            "Power": "25 kW",
            "Latitude": 13.55939007,
            "Longitude": 100.31420898,
            "Provider": "PEA"
        },
        {
            "Name": "ปราจีนบุรี",
            "description": "ตำบลหน้าเมือง อำเภอเมืองปราจีนบุรี ปราจีนบุรี 25000 PEA VOLTA ปราจีนบุรี",
            "Power": "25 kW",
            "Latitude": 14.05461025,
            "Longitude": 101.35501862,
            "Provider": "PEA"
        },
        {
            "Name": "พานทอง",
            "description": "1 ตำบล พานทอง อำเภอพานทอง ชลบุรี 20160 PEA VOLTA พานทอง",
            "Power": "25 kW",
            "Latitude": 13.47099018,
            "Longitude": 101.0951767,
            "Provider": "PEA"
        },
        {
            "Name": "บางปะอิน",
            "description": " 308 ตำบล คลองจิก อำเภอบางปะอิน จังหวัดพระนครศรีอยุธยา 13160 PEA VOLTA บางปะอิน",
            "Power": "25 kW",
            "Latitude": 14.21169567,
            "Longitude": 100.58769989,
            "Provider": "PEA"
        },
        {
            "Name": "พนัสนิคม",
            "description": "ตำบล บ้านช้าง อำเภอพนัสนิคม ชลบุรี 20140 PEA VOLTA พนัสนิคม",
            "Power": "25 kW",
            "Latitude": 13.45590878,
            "Longitude": 101.19628906,
            "Provider": "PEA"
        },
        {
            "Name": "บ่อทอง",
            "description": "268 ตำบล บ่อทอง อำเภอบ่อทอง ชลบุรี 20270 PEA VOLTA บ่อทอง",
            "Power": "25 kW",
            "Latitude": 13.26551247,
            "Longitude": 101.43793488,
            "Provider": "PEA"
        },
        {
            "Name": "บางแสน",
            "description": "ถนนบางแสนสาย 2, ตำบลแสนสุข อำเภอเมืองชลบุรี ชลบุรี 20130 PEA VOLTA บางแสน",
            "Power": "25 kW",
            "Latitude": 13.29052162,
            "Longitude": 100.91259003,
            "Provider": "PEA"
        },
        {
            "Name": "ปลวกแดง",
            "description": "ตำบล ปลวกแดง อำเภอปลวกแดง ระยอง 21140 PEA VOLTA ปลวกแดง",
            "Power": "25 kW",
            "Latitude": 12.97140598,
            "Longitude": 101.21376038,
            "Provider": "PEA"
        },
        {
            "Name": "บ้านบึง",
            "description": " ตำบล บ้านบึง อำเภอบ้านบึง ชลบุรี 20170 PEA VOLTA บ้านบึง",
            "Power": "25 kW",
            "Latitude": 13.29687977,
            "Longitude": 101.12441254,
            "Provider": "PEA"
        },
        {
            "Name": "ระยอง",
            "description": "143 หมู่ 2 ถ. สุขุมวิท ตำบลเนินพระ อำเภอเมืองระยอง ระยอง 21000 PEA VOLTA ระยอง",
            "Power": "25 kW",
            "Latitude": 12.68315125,
            "Longitude": 101.22422028,
            "Provider": "PEA"
        },
        {
            "Name": "มาบตาพุด",
            "description": "18 ถนนมาบตาพุดเมืองใหม่สาย7 ตำบล ห้วยโป่ง อำเภอเมืองระยอง ระยอง 21150 PEA VOLTA มาบตาพุด",
            "Power": "25 kW",
            "Latitude": 12.72266674,
            "Longitude": 101.12828827,
            "Provider": "PEA"
        },
        {
            "Name": "เพ",
            "description": "ซอย 1/2 ตำบลเพ อำเภอเมืองระยอง ระยอง 21160 PEA VOLTA เพ",
            "Power": "25 kW",
            "Latitude": 12.62326622,
            "Longitude": 101.42577362,
            "Provider": "PEA"
        },
        {
            "Name": "วังน้อย",
            "description": "ตำบล ลำตาเสา อำเภอวังน้อย จังหวัดพระนครศรีอยุธยา 13170 PEA VOLTA วังน้อย",
            "Power": "25 kW",
            "Latitude": 14.24962902,
            "Longitude": 100.70307159,
            "Provider": "PEA"
        },
        {
            "Name": "หนองแค",
            "description": "ตำบล หนองปลาหมอ อำเภอหนองแค สระบุรี 18140 PEA VOLTA หนองแค",
            "Power": "25 kW",
            "Latitude": 14.35058498,
            "Longitude": 100.85531616,
            "Provider": "PEA"
        },
        {
            "Name": "ชุมแพ",
            "description": "ตำบล ชุมแพ อำเภอชุมแพ ขอนแก่น 40130 PEA VOLTA ชุมแพ",
            "Power": "25 kW",
            "Latitude": 16.55112076,
            "Longitude": 102.08540344,
            "Provider": "PEA"
        },
        {
            "Name": "วังสะพุง",
            "description": "ตำบล เขาหลวง อำเภอวังสะพุง เลย 42130 PEA VOLTA วังสะพุง",
            "Power": "25 kW",
            "Latitude": 17.33830452,
            "Longitude": 101.75547028,
            "Provider": "PEA"
        },
        {
            "Name": "บ้านแพง",
            "description": "ตำบล บ้านแพง อำเภอ บ้านแพง นครพนม 48140 PEA VOLTA บ้านแพง",
            "Power": "25 kW",
            "Latitude": 17.97113228,
            "Longitude": 104.21341705,
            "Provider": "PEA"
        },
        {
            "Name": "นครราชสีมา",
            "description": "ตำบลในเมือง อำเภอเมืองนครราชสีมา นครราชสีมา 30000 PEA VOLTA นครราชสีมา #2",
            "Power": "25 kW",
            "Latitude": 14.97412491,
            "Longitude": 102.08364868,
            "Provider": "PEA"
        },
        {
            "Name": "จอมเทียน",
            "description": " PEA VOLTA จอมเทียน",
            "Power": "25 kW",
            "Latitude": 12.86489582,
            "Longitude": 100.9451828,
            "Provider": "PEA"
        },
        {
            "Name": "บ้านค่าย",
            "description": "ตำบล บ้านค่าย อำเภอบ้านค่าย ระยอง 21120 PEA VOLTA บ้านค่าย",
            "Power": "25 kW",
            "Latitude": 12.77228642,
            "Longitude": 101.29211426,
            "Provider": "PEA"
        },
        {
            "Name": "ปราณบุรี",
            "description": "ตำบล หนองตาแต้ม อำเภอปราณบุรี ประจวบคีรีขันธ์ 77120 PEA VOLTA ปราณบุรี",
            "Power": "25 kW",
            "Latitude": 12.36238575,
            "Longitude": 99.88574982,
            "Provider": "PEA"
        },
        {
            "Name": "ชะอำ",
            "description": "ตำบล ชะอำ อำเภอชะอำ เพชรบุรี 76120 PEA VOLTA ชะอำ",
            "Power": "25 kW",
            "Latitude": 12.71772289,
            "Longitude": 99.92845154,
            "Provider": "PEA"
        },
        {
            "Name": "โพนพิสัย",
            "description": "ตำบล จุมพล อำเภอ โพนพิสัย หนองคาย 43120 PEA VOLTA โพนพิสัย",
            "Power": "25 kW",
            "Latitude": 18.02464676,
            "Longitude": 103.10359955,
            "Provider": "PEA"
        },
        {
            "Name": "อ้อมน้อย",
            "description": "72 106 หมู่ที่ 9 ถ. พุทธมณฑลสาย 5 ตำบล ไร่ขิง อำเภอสามพราน นครปฐม 73210 PEA VOLTA อ้อมน้อย",
            "Power": "25 kW",
            "Latitude": 13.7229557,
            "Longitude": 100.29792786,
            "Provider": "PEA"
        },
        {
            "Name": "สามพราน",
            "description": "33/1 หมู่1 ถ. เพชรเกษม ตำบลท่าตลาด อำเภอสามพราน นครปฐม 73110 PEA VOLTA สามพราน",
            "Power": "25 kW",
            "Latitude": 13.74312115,
            "Longitude": 100.21258545,
            "Provider": "PEA"
        },
        {
            "Name": "ปักธงชัย",
            "description": "ตำบลเมืองปัก อำเภอปักธงชัย นครราชสีมา 30150 PEA VOLTA ปักธงชัย",
            "Power": "25 kW",
            "Latitude": 14.73450947,
            "Longitude": 102.02924347,
            "Provider": "PEA"
        },
        {
            "Name": "สระบุรี",
            "description": "ตำบล ปากเพรียว อำเภอเมืองสระบุรี สระบุรี 18000 PEA VOLTA สระบุรี",
            "Power": "25 kW",
            "Latitude": 14.53803825,
            "Longitude": 100.91025543,
            "Provider": "PEA"
        },
        {
            "Name": "บ้านโป่ง",
            "description": "22 ตำบล ปากแรต อำเภอบ้านโป่ง ราชบุรี 70110 PEA VOLTA บ้านโป่ง",
            "Power": "25 kW",
            "Latitude": 13.83493519,
            "Longitude": 99.87091064,
            "Provider": "PEA"
        },
        {
            "Name": "กบินทร์บุรี",
            "description": "28 3 ตำบล เมืองเก่า อำเภอกบินทร์บุรี ปราจีนบุรี 25240 PEA VOLTA กบินทร์บุรี",
            "Power": "25 kW",
            "Latitude": 13.978055,
            "Longitude": 101.75205231,
            "Provider": "PEA"
        },
        {
            "Name": "รัตภูมิ",
            "description": "436 ถนน ยนตรการกำธร ตำบล ท่าชะมวง อำเภอรัตภูมิ สงขลา 90180 PEA VOLTA รัตภูมิ",
            "Power": "25 kW",
            "Latitude": 7.12478495,
            "Longitude": 100.23781586,
            "Provider": "PEA"
        },
        {
            "Name": "สตูล",
            "description": "104, 6 ซอย สฤษดิ์ภูมินารถ อำเภอเมืองสตูล สตูล 91000 PEA VOLTA สตูล",
            "Power": "25 kW",
            "Latitude": 6.6110692,
            "Longitude": 100.07357788,
            "Provider": "PEA"
        },
        {
            "Name": "สทิงพระ",
            "description": "ตำบล จะทิ้งพระ อำเภอ สทิงพระ สงขลา 90190 PEA VOLTA สทิงพระ",
            "Power": "25 kW",
            "Latitude": 7.48578215,
            "Longitude": 100.4357605,
            "Provider": "PEA"
        },
        {
            "Name": "ลำพูน",
            "description": "ถนน ลำพูน-ป่าซาง ตำบล ในเมือง อำเภอเมืองลำพูน ลำพูน PEA VOLTA ลำพูน",
            "Power": "25 kW",
            "Latitude": 18.56887054,
            "Longitude": 98.99656677,
            "Provider": "PEA"
        },
        {
            "Name": "พร้าว",
            "description": "ตำบล เวียง อำเภอพร้าว เชียงใหม่ 50190 PEA VOLTA พร้าว",
            "Power": "25 kW",
            "Latitude": 19.36980247,
            "Longitude": 99.19470215,
            "Provider": "PEA"
        },
        {
            "Name": "ตากใบ",
            "description": "29/14 ตำบล เจ๊ะเห อำเภอ ตากใบ นราธิวาส 96110 PEA VOLTA ตากใบ",
            "Power": "25 kW",
            "Latitude": 6.25482798,
            "Longitude": 102.04001617,
            "Provider": "PEA"
        },
        {
            "Name": "สศช.",
            "description": "962 ถ. กรุงเกษม แขวงวัดโสมนัส เขตป้อมปราบศัตรูพ่าย กรุงเทพมหานคร 10100 PEA VOLTA สศช.",
            "Power": "120 kW",
            "Latitude": 13.75687885,
            "Longitude": 100.5140152,
            "Provider": "PEA"
        },
        {
            "Name": "คาลเท็กซ์ เมืองขอนแก่น",
            "description": "ตำบลบึงเนียม อำเภอเมืองขอนแก่น ขอนแก่น PEA VOLTA คาลเท็กซ์ เมืองขอนแก่น",
            "Power": "120 kW",
            "Latitude": 16.43793488,
            "Longitude": 102.92613983,
            "Provider": "PEA"
        },
        {
            "Name": "สถานีชาร์จ ฮูลิแกน คาเฟ่ (เครือข่าย VOLTA)",
            "description": "6002 ตำบล ตะกาดเง้า อำเภอท่าใหม่ จันทบุรี 22120 สถานีชาร์จ ฮูลิแกน คาเฟ่ (เครือข่าย VOLTA)",
            "Power": "40 kW",
            "Latitude": 12.6145916,
            "Longitude": 101.99621582,
            "Provider": "PEA"
        },
        {
            "Name": "สุราษฎร์ธานี",
            "description": "147 ถนนดอนนก ตำบลตลาด อำเภอเมืองสุราษฎร์ธานี จังหวัดสุราษฎร์ธานี 84000 PEA VOLTA สุราษฎร์ธานี",
            "Power": "120 kW",
            "Latitude": 9.13449287,
            "Longitude": 99.33189392,
            "Provider": "PEA"
        },
        {
            "Name": "คาลเท็กซ์ ศรีราชา (หนองขาม)",
            "description": "6/37 ม.2 บายพาส 331 อำเภอศรีราชา ชลบุรี 20110 PEA VOLTA คาลเท็กซ์ ศรีราชา 2 (หนองขาม)",
            "Power": "120 kW",
            "Latitude": 13.11799812,
            "Longitude": 101.03105927,
            "Provider": "PEA"
        },
        {
            "Name": "คาลเท็กซ์ หนองหาน",
            "description": "99 ตำบล หนองเม็ก อำเภอหนองสองห้อง อุดรธานี 41130 PEA VOLTA คาลเท็กซ์ หนองหาน",
            "Power": "120 kW",
            "Latitude": 17.36236382,
            "Longitude": 103.15239716,
            "Provider": "PEA"
        },
        {
            "Name": "บ้านดุง",
            "description": "2022 ตำบล บ้านดุง อำเภอ บ้านดุง อุดรธานี 41190 PEA VOLTA บ้านดุง",
            "Power": "25 kW",
            "Latitude": 17.67753601,
            "Longitude": 103.25028229,
            "Provider": "PEA"
        },
        {
            "Name": "คาลเท็กซ์ ศรีราชา (เขาคันทรง)",
            "description": "ทางหลวงยุทธศาสตร์ สัตหีบ - พนมสารคาม ตำบล เขาคันทรง อำเภอศรีราชา ชลบุรี 20110 PEA VOLTA คาลเท็กซ์ ศรีราชา 1 (เขาคันทรง)",
            "Power": "120 kW",
            "Latitude": 13.1076088,
            "Longitude": 101.14517212,
            "Provider": "PEA"
        },
        {
            "Name": "คาลเท็กซ์ โนนสะอาด",
            "description": "ตำบล โนนสะอาด อำเภอโนนสะอาด อุดรธานี 41240 PEA VOLTA คาลเท็กซ์ โนนสะอาด",
            "Power": "120 kW",
            "Latitude": 16.98781586,
            "Longitude": 102.89325714,
            "Provider": "PEA"
        },
        {
            "Name": "คาลเท็กซ์ บ้านนาเดิม",
            "description": "416/14  ต บ้านนา อ บ้านนาเดิม, สุราษฎร์ธานี, 84240 PEA VOLTA คาลเท็กซ์ บ้านนาเดิม",
            "Power": "120 kW",
            "Latitude": 8.88339996,
            "Longitude": 99.29445648,
            "Provider": "PEA"
        },
        {
            "Name": "เลย",
            "description": "ตำบลกุดป่อง อำเภอเมืองเลย เลย 42000 PEA VOLTA เลย",
            "Power": "25 kW",
            "Latitude": 17.48475647,
            "Longitude": 101.72724152,
            "Provider": "PEA"
        },
        {
            "Name": "บางจาก พนัสนิคม",
            "description": "นาวังหิน พนัสนิคม ชลบุรี PEA VOLTA บางจาก พนัสนิคม",
            "Power": "120 kW",
            "Latitude": 13.43572426,
            "Longitude": 101.28262329,
            "Provider": "PEA"
        },
        {
            "Name": "คาลเท็กซ์ โนนศิลา",
            "description": "ตำบลโนนแดง อำเภอโนนศิลา ขอนแก่น 40110 PEA VOLTA คาลเท็กซ์ โนนศิลา",
            "Power": "120 kW",
            "Latitude": 16.00981712,
            "Longitude": 102.70428467,
            "Provider": "PEA"
        },
        {
            "Name": "เชียงคาน",
            "description": " PEA VOLTA เชียงคาน",
            "Power": "25 kW",
            "Latitude": 17.87599564,
            "Longitude": 101.65517426,
            "Provider": "PEA"
        },
        {
            "Name": "7-11 ปลายพระยา",
            "description": "ต.ปลายพระยา อ.ปลายพระยา จ.กระบี่ 81160 PEA VOLTA 7-Eleven ปลายพระยา",
            "Power": "120 kW",
            "Latitude": 8.49898815,
            "Longitude": 98.88202667,
            "Provider": "PEA"
        },
        {
            "Name": "จัตุรัส",
            "description": "ถนน ชัยภูมิ - สีคิ้ว ตำบล กุดน้ำใส อำเภอจัตุรัส ชัยภูมิ 36130 PEA VOLTA จัตุรัส",
            "Power": "25 kW",
            "Latitude": 15.54472733,
            "Longitude": 101.83874512,
            "Provider": "PEA"
        },
        {
            "Name": "ตรัง",
            "description": "240 หมู่ 5 ถนนเพชรเกษม ตำบลนาท่ามเหนือ อำเภอเมืองตรัง จังหวัดตรัง 92000 PEA VOLTA ตรัง",
            "Power": "120 kW",
            "Latitude": 7.60705233,
            "Longitude": 99.59906769,
            "Provider": "PEA"
        },
        {
            "Name": "ประทาย",
            "description": "ตำบล กระทุ่มราย อำเภอ ประทาย นครราชสีมา 30180 PEA VOLTA ประทาย",
            "Power": "25 kW",
            "Latitude": 15.52530384,
            "Longitude": 102.70632172,
            "Provider": "PEA"
        },
        {
            "Name": "บางจาก คลองหลวง",
            "description": "คลองหนึ่ง ตำบล คลองหนึ่ง อำเภอคลองหลวง ปทุมธานี 12120 PEA VOLTA บางจาก คลองหลวง",
            "Power": "120 kW",
            "Latitude": 14.00048637,
            "Longitude": 100.61315155,
            "Provider": "PEA"
        },
        {
            "Name": "บางจาก ปราณบุรี",
            "description": "625/3 หมู่ที่ 1 ตำบลเขาน้อย อำเภอปราณบุรี จ.ประจวบคีรีขันธ์ 77120 PEA VOLTA บางจาก ปราณบุรี",
            "Power": "120 kW",
            "Latitude": 12.3783617,
            "Longitude": 99.89122772,
            "Provider": "PEA"
        },
        {
            "Name": "คาลเท็กซ์ เขาย้อย",
            "description": "79/8 ต.บางเค็ม อ.เขาย้อย, เพชรบุรี, 76140 PEA VOLTA คาลเท็กซ์ เขาย้อย",
            "Power": "120 kW",
            "Latitude": 13.28295517,
            "Longitude": 99.82014465,
            "Provider": "PEA"
        },
        {
            "Name": "คาลเท็กซ์ นิคมพัฒนา",
            "description": "มะขามคู่ นิคมพัฒนา ระยอง PEA VOLTA คาลเท็กซ์ นิคมพัฒนา",
            "Power": "120 kW",
            "Latitude": 12.84209824,
            "Longitude": 101.11863708,
            "Provider": "PEA"
        },
        {
            "Name": "คาลเท็กซ์ บ้านฉาง",
            "description": "2 หมู่ 6 ถนนสุขุมวิท ตำบลบ้านฉาง อำเภอบ้านฉาง ระยอง 21130 PEA VOLTA คาลเท็กซ์ บ้านฉาง",
            "Power": "120 kW",
            "Latitude": 12.74680042,
            "Longitude": 101.09854889,
            "Provider": "PEA"
        },
        {
            "Name": "เอสโซ่ สอยดาว",
            "description": "ทรายขาว สอยดาว จันทบุรี PEA VOLTA เอสโซ่ สอยดาว",
            "Power": "120 kW",
            "Latitude": 13.11003685,
            "Longitude": 102.22493744,
            "Provider": "PEA"
        },
        {
            "Name": "7-11 ตะพานหิน",
            "description": "ตำบล ตะพานหิน อำเภอ ตะพานหิน พิจิตร 66110 PEA VOLTA 7-Eleven ตะพานหิน",
            "Power": "120 kW",
            "Latitude": 16.21565056,
            "Longitude": 100.43859863,
            "Provider": "PEA"
        },
        {
            "Name": "จันทบุรี",
            "description": "1166 ถนน ท่าแฉลบ ตำบล ตลาด อำเภอเมืองจันทบุรี จันทบุรี 22000 PEA VOLTA จันทบุรี",
            "Power": "120 kW",
            "Latitude": 12.59599876,
            "Longitude": 102.09552765,
            "Provider": "PEA"
        },
        {
            "Name": "7-11 พรหมพิราม",
            "description": "ตำบล ดงประคำ อำเภอ พรหมพิราม พิษณุโลก 65180 PEA VOLTA 7-Eleven พรหมพิราม",
            "Power": "120 kW",
            "Latitude": 17.19698524,
            "Longitude": 100.26509857,
            "Provider": "PEA"
        },
        {
            "Name": "คาลเท็กซ์ ขาณุวรลักษบุรี",
            "description": "ตำบล สลกบาตร อำเภอขาณุวรลักษบุรี กำแพงเพชร 62140 PEA VOLTA คาลเท็กซ์ ขาณุวรลักษบุรี",
            "Power": "120 kW",
            "Latitude": 16.00706482,
            "Longitude": 99.79769135,
            "Provider": "PEA"
        },
        {
            "Name": "บางจาก เมืองนครสวรรค์",
            "description": "125/14 หมู่ที่ 10 ตำบลวัดไทรย์ อำเภอเมืองนครสวรรค์ จ.นครสวรรค์ PEA VOLTA บางจาก เมืองนครสวรรค์",
            "Power": "120 kW",
            "Latitude": 15.70757294,
            "Longitude": 100.08807373,
            "Provider": "PEA"
        },
        {
            "Name": "ลี้",
            "description": "333 หมู่ 4 ตำบล ลี้ อำเภอลี้ ลำพูน 51110 PEA VOLTA ลี้",
            "Power": "25 kW",
            "Latitude": 17.79114532,
            "Longitude": 98.95233154,
            "Provider": "PEA"
        },
        {
            "Name": "แม่สาย",
            "description": "226 หมู่ 8 ตำบล แม่สาย อำเภอแม่สาย เชียงราย 57130 PEA VOLTA แม่สาย",
            "Power": "25 kW",
            "Latitude": 20.42733002,
            "Longitude": 99.88751221,
            "Provider": "PEA"
        },
        {
            "Name": "บันนังสตา",
            "description": "ตำบล บันนังสตา อำเภอ บันนังสตา ยะลา 95130 PEA VOLTA บันนังสตา",
            "Power": "25 kW",
            "Latitude": 6.25653791,
            "Longitude": 101.24871063,
            "Provider": "PEA"
        },
        {
            "Name": "คาลเท็กซ์ ปราณบุรี",
            "description": "ตำบลหนองตาแต้ม อำเภอปราณบุรี จังหวัดประจวบคีรีขันธ์ 77120 PEA VOLTA คาลเท็กซ์ ปราณบุรี",
            "Power": "120 kW",
            "Latitude": 12.35778427,
            "Longitude": 99.8849411,
            "Provider": "PEA"
        },
        {
            "Name": "บางจาก ชัยบาดาล",
            "description": "8/1 หมู่ที่ 5 ต.นิคมลำนารายณ์ อ.ชัยบาดาล จ.ลพบุรี 15130 PEA VOLTA บางจาก ชัยบาดาล",
            "Power": "120 kW",
            "Latitude": 15.2260046,
            "Longitude": 101.12749481,
            "Provider": "PEA"
        },
        {
            "Name": "7-11 เมืองประจวบคีรีขันธ์",
            "description": "ถ.สุขใจ ต.ประจวบคีรีขันธ์ อ.เมืองประจวบคีรีขันธ์ ประจวบคีรีขันธ์ PEA VOLTA 7-Eleven เมืองประจวบคีรีขันธ์",
            "Power": "120 kW",
            "Latitude": 11.80021954,
            "Longitude": 99.79222107,
            "Provider": "PEA"
        },
        {
            "Name": "คาลเท็กซ์ พนมสารคาม",
            "description": "ตำบลเมืองเก่า อำเภอพนมสารคาม ฉะเชิงเทรา 24120 PEA VOLTA คาลเท็กซ์ พนมสารคาม",
            "Power": "120 kW",
            "Latitude": 13.72176456,
            "Longitude": 101.31787109,
            "Provider": "PEA"
        },
        {
            "Name": "เขตพระนครศรีอยุธยา",
            "description": "46 หมู่ 6 ถ.สายเอเชีย ต.หันตรา อำเภอ พระนครศรีอยุธยา จังหวัดพระนครศรีอยุธยา 13000 PEA VOLTA เขตพระนครศรีอยุธยา",
            "Power": "120 kW",
            "Latitude": 14.38348198,
            "Longitude": 100.60335541,
            "Provider": "PEA"
        },
        {
            "Name": "ท่ามะกา",
            "description": " PEA VOLTA ท่ามะกา",
            "Power": "25 kW",
            "Latitude": 13.90371323,
            "Longitude": 99.74560547,
            "Provider": "PEA"
        },
        {
            "Name": "บางจาก สามพราน (บางกระทึก)",
            "description": "ถ. พุทธมณฑลสาย 5 ตำบล บางกระทึก อำเภอสามพราน นครปฐม 73210 PEA VOLTA บางจาก สามพราน 2 (บางกระทึก)",
            "Power": "120 kW",
            "Latitude": 13.75924587,
            "Longitude": 100.30167389,
            "Provider": "PEA"
        },
        {
            "Name": "7-11 ย่านตาขาว",
            "description": " ตำบล ย่านตาขาว อำเภอ ย่านตาขาว จ. ตรัง&#13;&#10;&#13;&#10; PEA VOLTA 7-Eleven ย่านตาขาว",
            "Power": "120 kW",
            "Latitude": 7.37824297,
            "Longitude": 99.67483521,
            "Provider": "PEA"
        },
        {
            "Name": "คาลเท็กซ์ เมืองตรัง",
            "description": "221/12 ถ.ท่ากลาง ต.ทับเที่ยง อ.เมือง, ตรัง, 92000 PEA VOLTA คาลเท็กซ์ เมืองตรัง",
            "Power": "120 kW",
            "Latitude": 7.56078815,
            "Longitude": 99.59434509,
            "Provider": "PEA"
        },
        {
            "Name": "บางจาก เมืองสมุทรสาคร (บางกระเจ้า)",
            "description": "ตำบลบางกระเจ้า อำเภอเมืองสมุทรสาคร สมุทรสาคร 74000 PEA VOLTA บางจาก เมืองสมุทรสาคร 2 (บางกระเจ้า)",
            "Power": "120 kW",
            "Latitude": 13.53953838,
            "Longitude": 100.23036957,
            "Provider": "PEA"
        },
        {
            "Name": "คาลเท็กซ์ กระทุ่มแบน",
            "description": "ตำบล อ้อมน้อย อำเภอกระทุ่มแบน สมุทรสาคร 74130 PEA VOLTA คาลเท็กซ์ กระทุ่มแบน",
            "Power": "120 kW",
            "Latitude": 13.7051754,
            "Longitude": 100.3170166,
            "Provider": "PEA"
        },
        {
            "Name": "พังงา",
            "description": "76/1 หมู่3 ตาบลถ้าน้าผุด อาเภอเมือง จังหวัดพังงา. การไฟฟ้าส่วนภูมิภาคจังหวัดพังงา. PEA VOLTA พังงา",
            "Power": "120 kW",
            "Latitude": 8.44794273,
            "Longitude": 98.53263092,
            "Provider": "PEA"
        },
        {
            "Name": "ฮอด",
            "description": "ตำบล หางดง อำเภอฮอด เชียงใหม่ 50240 PEA VOLTA ฮอด",
            "Power": "25 kW",
            "Latitude": 18.17254257,
            "Longitude": 98.61086273,
            "Provider": "PEA"
        },
        {
            "Name": "มหาวิทยาลัยมหิดล วิทยาเขตกาญจนบุรี",
            "description": "ตำบล ลุ่มสุ่ม อำเภอไทรโยค กาญจนบุรี 71150 PEA VOLTA มหาวิทยาลัยมหิดล วิทยาเขตกาญจนบุรี",
            "Power": "120 kW",
            "Latitude": 14.13148499,
            "Longitude": 99.16014099,
            "Provider": "PEA"
        },
        {
            "Name": "พิษณุโลก",
            "description": "350/9 ถนนมิตรภาพ ตำบลสมอแข อำเภอเมืองพิษณุโลก จังหวัดพิษณุโลก 65000 PEA VOLTA พิษณุโลก",
            "Power": "120 kW",
            "Latitude": 16.81752777,
            "Longitude": 100.32225037,
            "Provider": "PEA"
        },
        {
            "Name": "ป่าตอง",
            "description": "187/15 ถ.ราษฎร์อุทิศ200ปี ต.ป่าตอง อ.กะทู้ จ.ภูเก็ต 83150 PEA VOLTA ป่าตอง",
            "Power": "120 kW",
            "Latitude": 7.89057636,
            "Longitude": 98.29814911,
            "Provider": "PEA"
        },
        {
            "Name": "เชียงใหม่",
            "description": "ถ. เชียงใหม่-ลำพูน ตำบลวัดเกต อำเภอเมืองเชียงใหม่ เชียงใหม่ 50000 PEA VOLTA เชียงใหม่",
            "Power": "25 kW",
            "Latitude": 18.77384377,
            "Longitude": 99.00720978,
            "Provider": "PEA"
        },
        {
            "Name": "แม่แตง",
            "description": "162 ตำบล สันมหาพน อำเภอแม่แตง เชียงใหม่ 50150 PEA VOLTA แม่แตง",
            "Power": "25 kW",
            "Latitude": 19.11118126,
            "Longitude": 98.93791962,
            "Provider": "PEA"
        },
        {
            "Name": "คาลเท็กซ์ สบปราบ",
            "description": "167 หมู่ที่ 15 ถนนพหลโยธิน ตำบลสบปราบ อำเภอสบปราบ, ลำปาง, 52170 PEA VOLTA คาลเท็กซ์ สบปราบ",
            "Power": "120 kW",
            "Latitude": 17.90705681,
            "Longitude": 99.34196472,
            "Provider": "PEA"
        },
        {
            "Name": "เขาค้อ",
            "description": "173 หมู่1 ตำบล เขาค้อ อำเภอเขาค้อ เพชรบูรณ์ 67270 PEA VOLTA เขาค้อ",
            "Power": "120 kW",
            "Latitude": 16.63161469,
            "Longitude": 100.99673462,
            "Provider": "PEA"
        },
        {
            "Name": "เชียงราย",
            "description": "ถนน ราชเดชดำรงค์ ตำบล รอบเวียง อำเภอเมืองเชียงราย เชียงราย 57000 PEA VOLTA เชียงราย",
            "Power": "25 kW",
            "Latitude": 19.91152382,
            "Longitude": 99.82334137,
            "Provider": "PEA"
        },
        {
            "Name": "แจ่มฟ้า เมืองลำพูน",
            "description": "ตำบล เวียงยอง อำเภอเมืองลำพูน ลำพูน 51000 PEA VOLTA แจ่มฟ้า เมืองลำพูน",
            "Power": "120 kW",
            "Latitude": 18.55843925,
            "Longitude": 99.03946686,
            "Provider": "PEA"
        },
        {
            "Name": "เกาะลันตา",
            "description": "ม.2 ต.เกาะลันตาใหญ่ อำเภอเกาะลันตา กระบี่ PEA VOLTA เกาะลันตา",
            "Power": "25 kW",
            "Latitude": 7.52970982,
            "Longitude": 99.09133148,
            "Provider": "PEA"
        },
        {
            "Name": "แม่จัน",
            "description": " PEA VOLTA แม่จัน",
            "Power": "25 kW",
            "Latitude": 20.13821793,
            "Longitude": 99.8425293,
            "Provider": "PEA"
        },
        {
            "Name": "บางจาก หางดง",
            "description": "110 ต.หนองควาย อ.หางดง จ. เชียงใหม่ 50230 PEA VOLTA บางจาก หางดง",
            "Power": "120 kW",
            "Latitude": 18.71303177,
            "Longitude": 98.92556763,
            "Provider": "PEA"
        },
        {
            "Name": "บางจาก กุมภวาปี",
            "description": "299 หมู่1 อำเภอกุมภวาปี อุดรธานี 41110 PEA VOLTA บางจาก กุมภวาปี",
            "Power": "120 kW",
            "Latitude": 17.11879158,
            "Longitude": 102.98889923,
            "Provider": "PEA"
        },
        {
            "Name": "คาลเท็กซ์ แม่แตง",
            "description": "1095  ต.สบเปิง อ.แม่แตง จ.เชียงใหม่ PEA VOLTA คาลเท็กซ์ แม่แตง",
            "Power": "120 kW",
            "Latitude": 19.09432793,
            "Longitude": 98.85349274,
            "Provider": "PEA"
        },
        {
            "Name": "คาลเท็กซ์ เวียงป่าเป้า",
            "description": "179 ตำบล ป่างิ้ว อำเภอเวียงป่าเป้า เชียงราย 57170 PEA VOLTA คาลเท็กซ์ เวียงป่าเป้า",
            "Power": "120 kW",
            "Latitude": 19.27036285,
            "Longitude": 99.51170349,
            "Provider": "PEA"
        },
        {
            "Name": "บางจาก หนองจิก",
            "description": "200/1 หมู่ 8 ถนนสายเอเซีย (ปัตตานี-หาดใหญ่) ตำบลบ่อทอง จังหวัดปัตตานี 94170 PEA VOLTA บางจาก หนองจิก",
            "Power": "120 kW",
            "Latitude": 6.80325985,
            "Longitude": 101.14037323,
            "Provider": "PEA"
        },
        {
            "Name": "บางจาก เมืองหนองคาย (โพธิ์ชัย)",
            "description": "หมู่ที่9, 778, ตำบล โพธิ์ชัย อำเภอเมืองหนองคาย หนองคาย 43000 PEA VOLTA บางจาก เมืองหนองคาย 2 (โพธิ์ชัย)",
            "Power": "120 kW",
            "Latitude": 17.86168098,
            "Longitude": 102.74945831,
            "Provider": "PEA"
        },
        {
            "Name": "เขตอุดรธานี",
            "description": "123 หมู่ 5 ถนน ช้างเผือก ตำบล นาดี อำเภอเมืองอุดรธานี อุดรธานี 41000 PEA VOLTA เขตอุดรธานี",
            "Power": "120 kW",
            "Latitude": 17.36808968,
            "Longitude": 102.75982666,
            "Provider": "PEA"
        },
        {
            "Name": "แอนดาซ พัทยา จอมเทียน บีซ",
            "description": "345 หมู่ 3 ต.นาจอมเทียน อ.สัตหีบ จ.จังหวัดชลบุรี 20250 ประเทศไทย แอนดาซ พัทยา จอมเทียน บีซ (เครือข่าย PEA VOLTA) #1",
            "Power": "40 kW",
            "Latitude": 12.79167747,
            "Longitude": 100.91093445,
            "Provider": "PEA"
        },