[PowerRoute.EVChargingStationModel(placeID: "ChIJjxWBRsGRHTERV3gt2wb-84M",
types: ["electric_vehicle_charging_station", "point_of_interest", "establishment"],
formattedAddress: "PTT Station สาขาวังน้อย Tambon Sanap Thuep, Subdistrict Chang Wat Phra Nakhon Si Ayutthaya 13170, Thailand",
streetNumber: "191",
route: "Thailand Route 309",
sublocalityLevel1: "Tambon Ban Mai",
sublocalityLevel2: "Khwaeng Sanambin",
province: "จ.พระนครศรีอยุธยา",
country: "TH", postalCode:"13170",
globalCode: "7P627RQ8+GV",
compoundCode: "7RQ8+GV Sananp Thuep, Wang Noi District, Phra Nakhon Si Ayutthaya, Thailand",
latitude: 14.2887828,longitude: 100.81721549999999,
VPLowLat: 14.287503619708495, VPLowLong: 100.81590436970849,
VPHighLat: 14.2902015802915, VPHighLong: 100.8186023302915,
GGMapURI: "https://maps.google.com/?cid=9508222543709698135",
openNow: true, openYear: 2024, openMonth: 3, openDay: 2,
closeYear: 2024, closeMonth: 3, closeDay: 8, weekdayDescriptions: [],
utcOffset: 420,
businessStatus: "OPERATIONAL",
displayName: "PTT Charging Station",
shortFormattedAddress: "PTT Station สาขาวังน้อย Tambon Sanap Thuep, Subdistrict",
evConnectorCount: 3,
evConnectorAggregation: [
    PowerRoute.EVConnector(type: "EV_CONNECTOR_TYPE_CHADEMO",maxChargeRateKw: 60.0,count: 1),
    PowerRoute.EVConnector(type: "EV_CONNECTOR_TYPE_TYPE_2", maxChargeRateKw: 22.0, count: 1),
    PowerRoute.EVConnector(type: "EV_CONNECTOR_TYPE_CCS_COMBO_2", maxChargeRateKw: 120.0, count: 1)]
    ), 
    
PowerRoute.EVChargingStationModel(placeID: "ChIJjxWBRsGRHTERV3gt2wb-84M",
types: ["electric_vehicle_charging_station", "point_of_interest", "establishment"],
formattedAddress: "PTT Station สาขาวังน้อย Tambon Sanap Thuep, Subdistrict Chang Wat Phra Nakhon Si Ayutthaya 13170, Thailand",
streetNumber: "191",
route: "Thailand Route 309",
sublocalityLevel1: "Tambon Ban Mai",
sublocalityLevel2: "Khwaeng Sanambin",
province: "จ.พระนครศรีอยุธยา",
country: "TH",
postalCode:"13170",
globalCode: "7P627RQ8+GV",
compoundCode: "7RQ8+GV Sananp Thuep, Wang Noi District, Phra Nakhon Si Ayutthaya, Thailand",
latitude: 14.2887828, longitude: 100.81721549999999,
VPLowLat: 14.287503619708495, VPLowLong: 100.81590436970849,
VPHighLat: 14.2902015802915, VPHighLong: 100.8186023302915,
GGMapURI: "https://maps.google.com/?cid=9508222543709698135",
openNow: true, openYear: 2024, openMonth: 3, openDay: 2,
closeYear: 2024, closeMonth: 3, closeDay: 8, weekdayDescriptions: [],
utcOffset: 420,
businessStatus: "OPERATIONAL",
displayName: "PTT Charging Station",
shortFormattedAddress: "PTT Station สาขาวังน้อย Tambon Sanap Thuep, Subdistrict",
evConnectorCount: 3,
evConnectorAggregation: [
    PowerRoute.EVConnector(type: "EV_CONNECTOR_TYPE_CHADEMO", maxChargeRateKw: 60.0, count: 1),
    PowerRoute.EVConnector(type: "EV_CONNECTOR_TYPE_TYPE_2", maxChargeRateKw: 22.0, count: 1),
    PowerRoute.EVConnector(type: "EV_CONNECTOR_TYPE_CCS_COMBO_2", maxChargeRateKw: 120.0, count: 1)]
    ),
PowerRoute.EVChargingStationModel(placeID: "ChIJ97QW1GbTHTER0DFRQsfDxx4", types: ["electric_vehicle_charging_station", "point_of_interest", "establishment"], formattedAddress: "496 กลางดง Tambon Klang Dong, Amphoe Pak Chong, Chang Wat Nakhon Ratchasima 18180, Thailand", streetNumber: "54", route: "Village No.17", sublocalityLevel1: "Tambon Ban Mai", sublocalityLevel2: "Khwaeng Sanambin", province: "จ.นครราชสีมา", country: "TH", postalCode: "18180", globalCode: "7P63M838+XW", compoundCode: "M838+XW Klang Dong, Pak Chong District, Nakhon Ratchasima, Thailand", latitude: 14.654997999999999, longitude: 101.31729329999999, VPLowLat: 14.653631919708499, VPLowLong: 101.31588136970848, VPHighLat: 14.656329880291503, VPHighLong: 101.3185793302915, GGMapURI: "https://maps.google.com/?cid=2217956602081784272", openNow: true, openYear: 2024, openMonth: 3, openDay: 2, closeYear: 2024, closeMonth: 3, closeDay: 8, weekdayDescriptions: [], utcOffset: 420, businessStatus: "OPERATIONAL", displayName: "PTT Charging Station", shortFormattedAddress: "496 กลางดง Tambon Klang Dong, Amphoe Pak Chong", evConnectorCount: 6, evConnectorAggregation: [PowerRoute.EVConnector(type: "EV_CONNECTOR_TYPE_TYPE_2", maxChargeRateKw: 11.0, count: 1), PowerRoute.EVConnector(type: "EV_CONNECTOR_TYPE_CCS_COMBO_2", maxChargeRateKw: 50.0, count: 4), PowerRoute.EVConnector(type: "EV_CONNECTOR_TYPE_TYPE_2", maxChargeRateKw: 7.400000095367432, count: 1)]), PowerRoute.EVChargingStationModel(placeID: "ChIJ97QW1GbTHTER0DFRQsfDxx4", types: ["electric_vehicle_charging_station", "point_of_interest", "establishment"], formattedAddress: "496 กลางดง Tambon Klang Dong, Amphoe Pak Chong, Chang Wat Nakhon Ratchasima 18180, Thailand", streetNumber: "54", route: "Village No.17", sublocalityLevel1: "Tambon Ban Mai", sublocalityLevel2: "Khwaeng Sanambin", province: "จ.นครราชสีมา", country: "TH", postalCode: "18180", globalCode: "7P63M838+XW", compoundCode: "M838+XW Klang Dong, Pak Chong District, Nakhon Ratchasima, Thailand", latitude: 14.654997999999999, longitude: 101.31729329999999, VPLowLat: 14.653631919708499, VPLowLong: 101.31588136970848, VPHighLat: 14.656329880291503, VPHighLong: 101.3185793302915, GGMapURI: "https://maps.google.com/?cid=2217956602081784272", openNow: true, openYear: 2024, openMonth: 3, openDay: 2, closeYear: 2024, closeMonth: 3, closeDay: 8, weekdayDescriptions: [], utcOffset: 420, businessStatus: "OPERATIONAL", displayName: "PTT Charging Station", shortFormattedAddress: "496 กลางดง Tambon Klang Dong, Amphoe Pak Chong", evConnectorCount: 6, evConnectorAggregation: [PowerRoute.EVConnector(type: "EV_CONNECTOR_TYPE_TYPE_2", maxChargeRateKw: 11.0, count: 1), PowerRoute.EVConnector(type: "EV_CONNECTOR_TYPE_CCS_COMBO_2", maxChargeRateKw: 50.0, count: 4), PowerRoute.EVConnector(type: "EV_CONNECTOR_TYPE_TYPE_2", maxChargeRateKw: 7.400000095367432, count: 1)])]