{
"type": "FeatureCollection",
"name": "EleX",
"crs": { "type": "name", "properties": { "name": "urn:ogc:def:crs:OGC:1.3:CRS84" } },
"features": [
{ "type": "Feature", "properties": { "Name": "PT เขาย้อย 1", "description": "2x CCS2: 60 kW", "Power": "60 kW", "Address": "95 หมู่ที่2 ตำบลห้วยโรง อำเภอเขาย้อย จังหวัดเพชรบุรี 76140", "Latitude": 13.314691, "Longitude": 99.827081, "Provider": "EleX" }, "geometry": { "type": "Point", "coordinates": [ 99.827081, 13.314691 ] } },
{ "type": "Feature", "properties": { "Name": "PT บ้านใต้", "description": "2x CCS2: 60 kW", "Power": "60 kW", "Address": "144 ถนนแสงชูโต ตำบลบ้านใต้ อำเภอเมืองกาญจนบุรี จังหวัดกาญจนบุรี 71000", "Latitude": 14.016689, "Longitude": 99.534364, "Provider": "EleX" }, "geometry": { "type": "Point", "coordinates": [ 99.534364, 14.016689 ] } },
{ "type": "Feature", "properties": { "Name": "PT พยุหะคีรี 2", "description": "2x CCS2: 60 kW", "Power": "60 kW", "Address": "75 หมู่ที่8 ตำบลม่วงหัก อำเภอพยุหะคีรี จังหวัดนครสวรรค์ 60130  ", "Latitude": 15.397363, "Longitude": 100.147765, "Provider": "EleX" }, "geometry": { "type": "Point", "coordinates": [ 100.147765, 15.397363 ] } },
{ "type": "Feature", "properties": { "Name": "PT ปากช่อง 3", "description": "2x CCS2: 60 kW", "Power": "60 kW", "Address": "172\/7 หมู่ที่7 ตำบลหนองน้ำแดง อำเภอปากช่อง จังหวัดนครราชสีมา 30130", "Latitude": 14.658708, "Longitude": 101.385312, "Provider": "EleX" }, "geometry": { "type": "Point", "coordinates": [ 101.385312, 14.658708 ] } },
{ "type": "Feature", "properties": { "Name": "PT บางพระ", "description": "2x CCS2: 60 kW", "Power": "60 kW", "Address": "641\/3 ถนนสุขุมวิท ตำบลเหมือง อำเภอเมืองชลบุรี จังหวัดชลบุรี 20130", "Latitude": 13.247961, "Longitude": 100.934508, "Provider": "EleX" }, "geometry": { "type": "Point", "coordinates": [ 100.934508, 13.247961 ] } },
{ "type": "Feature", "properties": { "Name": "ตึกผู้ว่าการฯ สำนักงานกลาง กฟผ.", "description": "CCS2: 50 kW, CHAdeMO: 50 kW, Type2: 22 kW", "Power": "50 kW", "Address": "53 หมู่ 2 ถ.จรัญสนิทวงศ์ ต.บางกรวย อ.บางกรวย จ.นนทบุรี 11130", "Latitude": 13.810481, "Longitude": 100.506343, "Provider": "EleX" }, "geometry": { "type": "Point", "coordinates": [ 100.506343, 13.810481 ] } },
{ "type": "Feature", "properties": { "Name": "ศูนย์การเรียนรู้ กฟผ. สำนักงานกลาง", "description": "CCS2: 50 kW, CHAdeMO: 50 kW, Type2: 22 kW, CCS2: 90 kW", "Power": "90 kW", "Address": "53 หมู่ 2 ถ.จรัญสนิทวงศ์ ต.บางกรวย อ.บางกรวย จ.นนทบุรี 11130", "Latitude": 13.812466, "Longitude": 100.511692, "Provider": "EleX" }, "geometry": { "type": "Point", "coordinates": [ 100.511692, 13.812466 ] } },
{ "type": "Feature", "properties": { "Name": "โรงไฟฟ้าจะนะ", "description": "CCS2: 90 kW", "Power": "90 kW", "Address": "124\/5 ม.1 ต.ป่าชิง อ.จะนะ จ.สงขลา", "Latitude": 6.949722, "Longitude": 100.696976, "Provider": "EleX" }, "geometry": { "type": "Point", "coordinates": [ 100.696976, 6.949722 ] } },
{ "type": "Feature", "properties": { "Name": "โรงไฟฟ้าวังน้อย", "description": "CCS2: 90 kW, 2x CCS2: 120 kW", "Power": "120 kW", "Address": "32 หมู่ 4 ตำบลวังจุฬา อำเภอวังน้อย จังหวัดพระนครศรีอยุธยา", "Latitude": 14.236698, "Longitude": 100.777578, "Provider": "EleX" }, "geometry": { "type": "Point", "coordinates": [ 100.777578, 14.236698 ] } },
{ "type": "Feature", "properties": { "Name": "โรงไฟฟ้าบางปะกง", "description": "CCS2: 90 kW", "Power": "90 kW", "Address": "เลขที่4 หมู่6 ต.ท่าข้าม อ.บางปะกง จ.ฉะเชิงเทรา 24130", "Latitude": 13.495069, "Longitude": 101.023054, "Provider": "EleX" }, "geometry": { "type": "Point", "coordinates": [ 101.023054, 13.495069 ] } },
{ "type": "Feature", "properties": { "Name": "โรงไฟฟ้าลำตะคองฯ", "description": "CCS2: 90 kW", "Power": "90 kW", "Address": "399 หมู่ที่ 12, ถนนมิตรภาพ, ตำบลหนองสาหร่าย อำเภอปากช่อง จังหวัดนครราชสีมา, 30130", "Latitude": 14.812254, "Longitude": 101.539209, "Provider": "EleX" }, "geometry": { "type": "Point", "coordinates": [ 101.539209, 14.812254 ] } },
{ "type": "Feature", "properties": { "Name": "โรงไฟฟ้าน้ำพอง", "description": "CCS2: 90 kW", "Power": "90 kW", "Address": "262 หมู่ที่ 1 ต.กุดน้ำใส อ.น้ำพอง จ.ขอนแก่น", "Latitude": 16.679187, "Longitude": 102.737605, "Provider": "EleX" }, "geometry": { "type": "Point", "coordinates": [ 102.737605, 16.679187 ] } },
{ "type": "Feature", "properties": { "Name": "โรงไฟฟ้าเขื่อนสิรินธร", "description": "CCS2: 90 kW", "Power": "90 kW", "Address": "30 หมู่ 11 ต.นิคมลำโดมน้อย อ.สิรินธร จ.อุบลราชธานี", "Latitude": 15.200882, "Longitude": 105.426253, "Provider": "EleX" }, "geometry": { "type": "Point", "coordinates": [ 105.426253, 15.200882 ] } },
{ "type": "Feature", "properties": { "Name": "โรงไฟฟ้าแม่เมาะ", "description": "CCS2: 90 kW, CCS2: 90 kW", "Power": "90 kW", "Address": "800 หมู่ 6 ต.แม่เมาะ อ.แม่เมาะ จ.ลำปาง", "Latitude": 18.300175, "Longitude": 99.746251, "Provider": "EleX" }, "geometry": { "type": "Point", "coordinates": [ 99.746251, 18.300175 ] } },
{ "type": "Feature", "properties": { "Name": "ERDI-CMU สถาบันฯ พลังงาน มช.", "description": "CCS2: 50 kW, CHAdeMO: 50 kW, Type2: 22 kW", "Power": "50 kW", "Address": "155 ม.2 ต.แม่เหียะ อ.เมือง จ.เชียงใหม่ 50100  ", "Latitude": 18.757285, "Longitude": 98.939909, "Provider": "EleX" }, "geometry": { "type": "Point", "coordinates": [ 98.939909, 18.757285 ] } },
{ "type": "Feature", "properties": { "Name": "โรงพยาบาลกรุงเทพ พัทยา", "description": "CCS2: 100 kW, CHAdeMO: 100 kW, Type2: 22 kW, Type2: 22 kW", "Power": "100 kW", "Address": "301 หมู่ที่ 6 ถ. สุขุมวิท เมืองพัทยา อำเภอบางละมุง ชลบุรี 20150", "Latitude": 12.953918, "Longitude": 100.905935, "Provider": "EleX" }, "geometry": { "type": "Point", "coordinates": [ 100.905935, 12.953918 ] } },
{ "type": "Feature", "properties": { "Name": "มาร์เก็ตวิลเลจ หัวหิน", "description": "2x CCS2: 125 kW, Type2: 22 kW", "Power": "125 kW", "Address": "ศูนย์การค้ามาร์เก็ตวิลเลจ หัวหิน (HMV) 234\/1 ถ. เพชรเกษม ตำบลหัวหิน อำเภอหัวหิน ประจวบคีรีขันธ์ 77110", "Latitude": 12.558122, "Longitude": 99.960226, "Provider": "EleX" }, "geometry": { "type": "Point", "coordinates": [ 99.960226, 12.558122 ] } },
{ "type": "Feature", "properties": { "Name": "Midwinter เขาใหญ่", "description": "2x CCS2: 125 kW, Type2: 22 kW", "Power": "125 kW", "Address": "88 88 หมู่ที่ 10 Thanaratch Rd, Nong Nam Daeng, Pak Chong District, Nakhon Ratchasima 30130", "Latitude": 14.61726, "Longitude": 101.406591, "Provider": "EleX" }, "geometry": { "type": "Point", "coordinates": [ 101.406591, 14.61726 ] } },
{ "type": "Feature", "properties": { "Name": "PT นางรอง", "description": "2x CCS2: 125 kW", "Power": "125 kW", "Address": "244\/2 ถนนโชคชัย-เดชอุดม ตำบลนางรอง อำเภอนางรอง จังหวัดบุรีรัมย์ 31110", "Latitude": 14.633484, "Longitude": 102.798905, "Provider": "EleX" }, "geometry": { "type": "Point", "coordinates": [ 102.798905, 14.633484 ] } },
{ "type": "Feature", "properties": { "Name": "PT ตาก", "description": "2x CCS2: 125 kW", "Power": "125 kW", "Address": "112 หมู่ที่1 ตำบลแม่ท้อ อำเภอเมืองตาก จังหวัดตาก 63000", "Latitude": 16.852771, "Longitude": 99.116337, "Provider": "EleX" }, "geometry": { "type": "Point", "coordinates": [ 99.116337, 16.852771 ] } },
{ "type": "Feature", "properties": { "Name": "PT วังน้อย 5", "description": "2x CCS2: 125 kW", "Power": "125 kW", "Address": "237 หมู่ที่2 ตำบลชะแมบ อำเภอวังน้อย จังหวัดพระนครศรีอยุธยา 13170", "Latitude": 14.260597, "Longitude": 100.775009, "Provider": "EleX" }, "geometry": { "type": "Point", "coordinates": [ 100.775009, 14.260597 ] } },
{ "type": "Feature", "properties": { "Name": "PT เชียงใหม่ 8", "description": "2x CCS2: 125 kW", "Power": "125 kW", "Address": "100\/20 หมู่ที่1 ตำบลป่าแดด อำเภอเมืองเชียงใหม่ จังหวัดเชียงใหม่ 50100", "Latitude": 18.766139, "Longitude": 98.975967, "Provider": "EleX" }, "geometry": { "type": "Point", "coordinates": [ 98.975967, 18.766139 ] } },
{ "type": "Feature", "properties": { "Name": "PT เถิน", "description": "2x CCS2: 125 kW", "Power": "125 kW", "Address": "123 หมู่ที่12 ตำบลล้อมแรด อำเภอเถิน จังหวัดลำปาง  52160", "Latitude": 17.622911, "Longitude": 99.23707, "Provider": "EleX" }, "geometry": { "type": "Point", "coordinates": [ 99.23707, 17.622911 ] } },
{ "type": "Feature", "properties": { "Name": "PT ลำปาง", "description": "2x CCS2: 125 kW", "Power": "125 kW", "Address": "102 หมู่ที่10 ตำบลปงแสนทอง อำเภอเมืองลำปาง จังหวัดลำปาง 52100", "Latitude": 18.295663, "Longitude": 99.415306, "Provider": "EleX" }, "geometry": { "type": "Point", "coordinates": [ 99.415306, 18.295663 ] } },
{ "type": "Feature", "properties": { "Name": "PT ท่าใหม่ 5", "description": "2x CCS2: 125 kW", "Power": "125 kW", "Address": "34\/1 หมู่ที่6 ตำบลเขาบายศรี อำเภอท่าใหม่ จังหวัดจันทบุรี 22120", "Latitude": 12.649677, "Longitude": 102.030855, "Provider": "EleX" }, "geometry": { "type": "Point", "coordinates": [ 102.030855, 12.649677 ] } },
{ "type": "Feature", "properties": { "Name": "PT เลี่ยงเมืองเชียงราย1", "description": "2x CCS2: 125 kW", "Power": "125 kW", "Address": "352 หมู่ที่1 ตำบลท่าสาย อำเภอเมืองเชียงราย จังหวัดเชียงราย 57000", "Latitude": 19.874148, "Longitude": 99.847052, "Provider": "EleX" }, "geometry": { "type": "Point", "coordinates": [ 99.847052, 19.874148 ] } },
{ "type": "Feature", "properties": { "Name": "PT บรมราชชนนี 2", "description": "2x CCS2: 125 kW, 2x CCS2: 60 kW", "Power": "125 kW", "Address": "ทวีวัฒนา กรุงเทพมหานคร", "Latitude": 13.78906, "Longitude": 100.342273, "Provider": "EleX" }, "geometry": { "type": "Point", "coordinates": [ 100.342273, 13.78906 ] } },
{ "type": "Feature", "properties": { "Name": "PT อุดรนาดี", "description": "2x CCS2: 125 kW", "Power": "125 kW", "Address": "63\/21 หมู่ที่4 ซอยบ้านโพนบก ตำบลหมากแข้ง อำเภอเมืองอุดรธานี จังหวัดอุดรธานี 41000", "Latitude": 17.382271, "Longitude": 102.753264, "Provider": "EleX" }, "geometry": { "type": "Point", "coordinates": [ 102.753264, 17.382271 ] } },
{ "type": "Feature", "properties": { "Name": "PT หาดใหญ่ 7", "description": "2x CCS2: 125 kW", "Power": "125 kW", "Address": "491 ถนนราษฎร์อุทิศ ตำบลหาดใหญ่ อำเภอหาดใหญ่ จังหวัดสงขลา 90110", "Latitude": 7.012334, "Longitude": 100.457034, "Provider": "EleX" }, "geometry": { "type": "Point", "coordinates": [ 100.457034, 7.012334 ] } },
{ "type": "Feature", "properties": { "Name": "PT บ้านไผ่ 4", "description": "2x CCS2: 125 kW", "Power": "125 kW", "Address": "196 หมู่ที่1 ตำบลบ้านไผ่ อำเภอบ้านไผ่ จังหวัดขอนแก่น 40110", "Latitude": 16.096594, "Longitude": 102.732042, "Provider": "EleX" }, "geometry": { "type": "Point", "coordinates": [ 102.732042, 16.096594 ] } },
{ "type": "Feature", "properties": { "Name": "PT บางสะพานน้อย", "description": "2x CCS2: 125 kW", "Power": "125 kW", "Address": "323\/1 หมู่ที่3 ตำบลช้างแรก อำเภอบางสะพานน้อย จังหวัดประจวบคีรีขันธ์ 77170", "Latitude": 11.083353, "Longitude": 99.369784, "Provider": "EleX" }, "geometry": { "type": "Point", "coordinates": [ 99.369784, 11.083353 ] } },
{ "type": "Feature", "properties": { "Name": "SCG Ceramics นิคมอุตสาหกรรมหนองแค", "description": "CCS2: 100 kW, CHAdeMO: 100 kW, Type2: 22 kW", "Power": "100 kW", "Address": "จ.สระบุรี", "Latitude": 14.384686, "Longitude": 100.892841, "Provider": "EleX" }, "geometry": { "type": "Point", "coordinates": [ 100.892841, 14.384686 ] } },
{ "type": "Feature", "properties": { "Name": "กระทรวงพลังงาน", "description": "CCS2: 50 kW, CHAdeMO: 50 kW, Type2: 22 kW, Type2: 7 kW", "Power": "50 kW", "Address": "555\/2 วิภาวดีรังสิต แขวงจตุจักร เขตจตุจักร กรุงเทพมหานคร 10900 ประเทศไทย", "Latitude": 13.820229, "Longitude": 100.556165, "Provider": "EleX" }, "geometry": { "type": "Point", "coordinates": [ 100.556165, 13.820229 ] } },
{ "type": "Feature", "properties": { "Name": "ChargeROD @Petchburi เพชรบุรี", "description": "CCS2: 40 kW, CHAdeMO: 40 kW", "Power": "40 kW", "Address": "69 หมู่ที่ 3 ถนนเพชรเกษม ตำบลท่ายาง อำเภอท่ายาง จังหวัดเพชรบุรี 76130", "Latitude": 12.996078, "Longitude": 99.907895, "Provider": "EleX" }, "geometry": { "type": "Point", "coordinates": [ 99.907895, 12.996078 ] } },
{ "type": "Feature", "properties": { "Name": "PT ชะอำ 3", "description": "2x CCS2: 125 kW", "Power": "125 kW", "Address": "350 หมู่ที่3 ตำบลดอนขุนห้วย อำเภอชะอำ จังหวัดเพชรบุรี 76120", "Latitude": 12.885081, "Longitude": 99.911295, "Provider": "EleX" }, "geometry": { "type": "Point", "coordinates": [ 99.911295, 12.885081 ] } },
{ "type": "Feature", "properties": { "Name": "PT ห้วยบง 3", "description": "2x CCS2: 125 kW", "Power": "125 kW", "Address": "29\/9 หมู่ที่9 ตำบลห้วยบง อำเภอเฉลิมพระเกียรติ จังหวัดสระบุรี 18240", "Latitude": 14.62764, "Longitude": 100.89051, "Provider": "EleX" }, "geometry": { "type": "Point", "coordinates": [ 100.89051, 14.62764 ] } },
{ "type": "Feature", "properties": { "Name": "PT พิษณุโลก 4", "description": "2x CCS2: 125 kW", "Power": "125 kW", "Address": "166\/8,166\/9 หมู่ที่7 ถนนรัชดาภิเษก ตำบลท่าโพธิ์ อำเภอเมืองพิษณุโลก จังหวัดพิษณุโลก 65000", "Latitude": 16.758976, "Longitude": 100.189809, "Provider": "EleX" }, "geometry": { "type": "Point", "coordinates": [ 100.189809, 16.758976 ] } },
{ "type": "Feature", "properties": { "Name": "PT นครราชสีมา 11", "description": "2x CCS2: 125 kW", "Power": "125 kW", "Address": "221 หมู่ที่2 ตำบลหนองจะบก อำเภอเมือง จังหวัดนครราชสีมา 30000", "Latitude": 15.01016, "Longitude": 102.06107, "Provider": "EleX" }, "geometry": { "type": "Point", "coordinates": [ 102.06107, 15.01016 ] } },
{ "type": "Feature", "properties": { "Name": "PT วิเชียรบุรี 2", "description": "2x CCS2: 125 kW", "Power": "125 kW", "Address": "163 หมู่ที่7 ตำบลสระประดู่ อำเภอวิเชียรบุรี จังหวัดเพชรบูรณ์ 67130", "Latitude": 15.59928, "Longitude": 101.06445, "Provider": "EleX" }, "geometry": { "type": "Point", "coordinates": [ 101.06445, 15.59928 ] } },
{ "type": "Feature", "properties": { "Name": "PT บ้านบึง 7", "description": "2x CCS2: 125 kW", "Power": "125 kW", "Address": "19\/24 หมู่ 5 ตำบล บ้านบึง อำเภอบ้านบึง ชลบุรี ประเทศไทย ชลบุรี", "Latitude": 13.302263, "Longitude": 101.140109, "Provider": "EleX" }, "geometry": { "type": "Point", "coordinates": [ 101.140109, 13.302263 ] } },
{ "type": "Feature", "properties": { "Name": "PT กบินทร์บุรี 8", "description": "2x CCS2: 125 kW", "Power": "125 kW", "Address": "198 หมู่ที่5 ตำบลเมืองเก่า อำเภอกบินทร์บุรี จังหวัดปราจีนบุรี", "Latitude": 14.02291, "Longitude": 101.78282, "Provider": "EleX" }, "geometry": { "type": "Point", "coordinates": [ 101.78282, 14.02291 ] } },
{ "type": "Feature", "properties": { "Name": "PT ไชโย 2", "description": "2x CCS2: 125 kW", "Power": "125 kW", "Address": "97 หมู่ที่3 ตำบลหลักฟ้า อำเภอไชโย จังหวัดอ่างทอง 14140", "Latitude": 14.681287, "Longitude": 100.466169, "Provider": "EleX" }, "geometry": { "type": "Point", "coordinates": [ 100.466169, 14.681287 ] } },
{ "type": "Feature", "properties": { "Name": "PT นิคมพัฒนา2", "description": "2x CCS2: 125 kW", "Power": "125 kW", "Address": "521 หมู่ที่5 ตำบลมะขามคู่ อำเภอนิคมพัฒนา จังหวัดระยอง 21180", "Latitude": 12.85576, "Longitude": 101.09367, "Provider": "EleX" }, "geometry": { "type": "Point", "coordinates": [ 101.09367, 12.85576 ] } },
{ "type": "Feature", "properties": { "Name": "PT ตรัง 2", "description": "2x CCS2: 125 kW", "Power": "125 kW", "Address": "358\/1 ถนนห้วยยอด ตำบลทับเที่ยง อำเภอเมืองตรัง จังหวัดตรัง 92000", "Latitude": 7.572816, "Longitude": 99.605668, "Provider": "EleX" }, "geometry": { "type": "Point", "coordinates": [ 99.605668, 7.572816 ] } },
{ "type": "Feature", "properties": { "Name": "PT พัทลุง 2", "description": "2x CCS2: 125 kW", "Power": "125 kW", "Address": "173 หมู่ที่7 ตำบลท่าแค อำเภอเมืองพัทลุง จังหวัดพัทลุง 93000", "Latitude": 7.557634, "Longitude": 100.04671, "Provider": "EleX" }, "geometry": { "type": "Point", "coordinates": [ 100.04671, 7.557634 ] } },
{ "type": "Feature", "properties": { "Name": "PT วารินชำราบ 6", "description": "2x CCS2: 125 kW", "Power": "125 kW", "Address": "229 หมุ่ที่9 ตำบลหนองกินเพล อำเภอวารินชำราบ จังหวัดอุบลราชธานี 34190", "Latitude": 15.172396, "Longitude": 104.793279, "Provider": "EleX" }, "geometry": { "type": "Point", "coordinates": [ 104.793279, 15.172396 ] } },
{ "type": "Feature", "properties": { "Name": "PT ไชยา 3", "description": "2x CCS2: 125 kW", "Power": "125 kW", "Address": "213 หมู่ที่1 ตำบลเวียง อำเภอไชยา จังหวัดสุราษฎร์ธานี 84110", "Latitude": 9.386612, "Longitude": 99.170108, "Provider": "EleX" }, "geometry": { "type": "Point", "coordinates": [ 99.170108, 9.386612 ] } },
{ "type": "Feature", "properties": { "Name": "PT คลองขลุง 4", "description": "2x CCS2: 125 kW", "Power": "125 kW", "Address": "159 หมู่ที่3 ตำบลท่าพุทรา อำเภอคลองขลุง จังหวัดกำแพงเพชร 62120", "Latitude": 16.261033, "Longitude": 99.686835, "Provider": "EleX" }, "geometry": { "type": "Point", "coordinates": [ 99.686835, 16.261033 ] } },
{ "type": "Feature", "properties": { "Name": "PT หล่มสัก 4", "description": "2x CCS2: 125 kW", "Power": "125 kW", "Address": "ตำบล หนองไขว่ อำเภอหล่มสัก เพชรบูรณ์ 67110", "Latitude": 16.738524, "Longitude": 101.226939, "Provider": "EleX" }, "geometry": { "type": "Point", "coordinates": [ 101.226939, 16.738524 ] } },
{ "type": "Feature", "properties": { "Name": "PT สวี 3", "description": "2x CCS2: 125 kW", "Power": "125 kW", "Address": "ตำบล ครน อำเภอสวี ชุมพร 86130", "Latitude": 10.277704, "Longitude": 99.083596, "Provider": "EleX" }, "geometry": { "type": "Point", "coordinates": [ 99.083596, 10.277704 ] } },
{ "type": "Feature", "properties": { "Name": "PT กระบี่ 2", "description": "2x CCS2: 125 kW", "Power": "125 kW", "Address": "377 ถนนอุตรกิจ ตำบลปากน้ำ อำเภอเมืองกระบี่ จังหวัดกระบี่ 81000", "Latitude": 8.082432, "Longitude": 98.914332, "Provider": "EleX" }, "geometry": { "type": "Point", "coordinates": [ 98.914332, 8.082432 ] } },
{ "type": "Feature", "properties": { "Name": "SUPERFAST by PPWE เฉลิมพระเกียรติ โคราช", "description": "CCS2: 100 kW, CHAdeMO: 100 kW", "Power": "100 kW", "Address": "ตำบลหนองงูเหลือม อำเภอเฉลิมพระเกียรติ จ.นครราชสีมา", "Latitude": 15.079479, "Longitude": 102.22351, "Provider": "EleX" }, "geometry": { "type": "Point", "coordinates": [ 102.22351, 15.079479 ] } },
{ "type": "Feature", "properties": { "Name": "SUPERFAST by UAC (EECi)", "description": "CCS2: 50 kW, CHAdeMO: 50 kW, Type2: 43 kW", "Power": "50 kW", "Address": "ระยอง", "Latitude": 12.991868, "Longitude": 101.444981, "Provider": "EleX" }, "geometry": { "type": "Point", "coordinates": [ 101.444981, 12.991868 ] } },
{ "type": "Feature", "properties": { "Name": "ทำเนียบรัฐบาล (สำหรับข้าราชการและผู้มาติดต่อราชการ)", "description": "Type2: 22 kW, Type2: 22 kW, CCS2: 60 kW, CHAdeMO: 60 kW", "Power": "60 kW", "Address": "1 Phitsanulok Road Dusit District 10300", "Latitude": 13.761954, "Longitude": 100.511995, "Provider": "EleX" }, "geometry": { "type": "Point", "coordinates": [ 100.511995, 13.761954 ] } },
{ "type": "Feature", "properties": { "Name": "อิมแพ็ค ลานจอดภายนอกอาคาร Novotel", "description": "CCS2: 60 kW, CHAdeMO: 60 kW, 2x CCS2: 125 kW", "Power": "125 kW", "Address": "94 Popular Rd, Subdistrict, Amphoe Pak Kret, Nonthaburi 11120", "Latitude": 13.914767, "Longitude": 100.54828, "Provider": "EleX" }, "geometry": { "type": "Point", "coordinates": [ 100.54828, 13.914767 ] } },
{ "type": "Feature", "properties": { "Name": "Porto Go บางปะอิน", "description": "2x CCS2: 125 kW, Type2: 22 kW", "Power": "125 kW", "Address": "80 Khlong Chik, Bang Pa-in District, Phra Nakhon Si Ayutthaya 13160, Thailand", "Latitude": 14.201995, "Longitude": 100.60755, "Provider": "EleX" }, "geometry": { "type": "Point", "coordinates": [ 100.60755, 14.201995 ] } },
{ "type": "Feature", "properties": { "Name": "สถานีแม่ฮ่องสอน", "description": "2x CCS2: 125 kW, Type2: 22 kW", "Power": "125 kW", "Address": "116 ถ.ขุนลุมประพาส ต.จองคำ อ.เมือง จ.แม่ฮ่องสอน 58000", "Latitude": 19.292166, "Longitude": 97.964733, "Provider": "EleX" }, "geometry": { "type": "Point", "coordinates": [ 97.964733, 19.292166 ] } },
{ "type": "Feature", "properties": { "Name": "Kolao Auto city EV charging Station", "description": "2x CCS2: 200 kW", "Power": "200 kW", "Address": "XHGP+VXG, ຖະໜົນອາຊຽນ, ບ້ານນາຄຳ, ເມືອງສີໂຄຕະບອງ, Vientiane", "Latitude": 17.97655, "Longitude": 102.587431, "Provider": "EleX" }, "geometry": { "type": "Point", "coordinates": [ 102.587431, 17.97655 ] } },
{ "type": "Feature", "properties": { "Name": "Kolao Kokkokmart EV charging Station", "description": "2x CCS2: 100 kW, 2x CCS2: 100 kW", "Power": "100 kW", "Address": "310 Rue Bourichane, Ban Phonsinuan, Unit-12, Sisattanak District, 0103 VientianeCapital, Lao PDR", "Latitude": 17.964589, "Longitude": 102.625648, "Provider": "EleX" }, "geometry": { "type": "Point", "coordinates": [ 102.625648, 17.964589 ] } },
{ "type": "Feature", "properties": { "Name": "Kolaocare Xaymoungkon EV charging station", "description": "2x CCS2: 100 kW", "Power": "100 kW", "Address": "ຖະໜົນ 13 ເໜືອ, ບ້ານສີເກີດ, ເມືອງນາຊາຍທອງ", "Latitude": 18.024511, "Longitude": 102.547632, "Provider": "EleX" }, "geometry": { "type": "Point", "coordinates": [ 102.547632, 18.024511 ] } },
{ "type": "Feature", "properties": { "Name": "ศูนย์การแพทย์กาญจนาภิเษก", "description": "CCS2: 30 kW, Type2: 22 kW", "Power": "30 kW", "Address": "888 Borommaratchachonnani Rd, Salaya, Phutthamonthon District, Nakhon Pathom 73170", "Latitude": 13.786948, "Longitude": 100.321744, "Provider": "EleX" }, "geometry": { "type": "Point", "coordinates": [ 100.321744, 13.786948 ] } },
{ "type": "Feature", "properties": { "Name": "One Nimman", "description": "2x CCS2: 125 kW, Type2: 22 kW", "Power": "125 kW", "Address": "Suthep, Mueang Chiang Mai District, Chiang Mai 50200", "Latitude": 18.80044, "Longitude": 98.968963, "Provider": "EleX" }, "geometry": { "type": "Point", "coordinates": [ 98.968963, 18.80044 ] } },
{ "type": "Feature", "properties": { "Name": "EVX สาขาเมืองเอก รังสิต จ.ปทุมธานี", "description": "2x CCS2: 60 kW", "Power": "60 kW", "Address": "186 5 พหลโยธิน 87 ซ. 6 ตำบล ประชาธิปัตย์ อำเภอธัญบุรี ปทุมธานี 12130", "Latitude": 13.967511, "Longitude": 100.607635, "Provider": "EleX" }, "geometry": { "type": "Point", "coordinates": [ 100.607635, 13.967511 ] } },
{ "type": "Feature", "properties": { "Name": "สถานีอู่ทองพลังงาน", "description": "2x CCS2: 100 kW", "Power": "100 kW", "Address": "887 หมู่ที่3 ต.อู่ทอง อ.อู่ทอง. จังหวัดสุพรรณบุรี 72160", "Latitude": 14.386337, "Longitude": 99.893982, "Provider": "EleX" }, "geometry": { "type": "Point", "coordinates": [ 99.893982, 14.386337 ] } },
{ "type": "Feature", "properties": { "Name": "Porto Go ท่าจีน", "description": "2x CCS2: 125 kW", "Power": "125 kW", "Address": "99\/9 หมู่ที่ 4 Rama 2 Rd, Bang Tho Rat, Mueang Samut Sakhon District, Samut Sakhon 74000", "Latitude": 13.516517, "Longitude": 100.161457, "Provider": "EleX" }, "geometry": { "type": "Point", "coordinates": [ 100.161457, 13.516517 ] } },
{ "type": "Feature", "properties": { "Name": "PT นครนายก", "description": "2x CCS2: 125 kW", "Power": "125 kW", "Address": "Mueang Nakhon Nayok District, Nakhon Nayok 26000", "Latitude": 14.203233, "Longitude": 101.206805, "Provider": "EleX" }, "geometry": { "type": "Point", "coordinates": [ 101.206805, 14.203233 ] } },
{ "type": "Feature", "properties": { "Name": "PT อุตรดิตถ์ 5", "description": "2x CCS2: 125 kW", "Power": "125 kW", "Address": "11 Pa Sao, Mueang Uttaradit District, Uttaradit 53000", "Latitude": 17.601584, "Longitude": 100.123684, "Provider": "EleX" }, "geometry": { "type": "Point", "coordinates": [ 100.123684, 17.601584 ] } },
{ "type": "Feature", "properties": { "Name": "PT ขอนแก่น 10", "description": "2x CCS2: 125 kW", "Power": "125 kW", "Address": "Tambon Ban Pet, Mueang Khon Kaen District, Khon Kaen 40000", "Latitude": 16.449739, "Longitude": 102.75878, "Provider": "EleX" }, "geometry": { "type": "Point", "coordinates": [ 102.75878, 16.449739 ] } },
{ "type": "Feature", "properties": { "Name": "PT บางปลาม้า 2", "description": "2x CCS2: 125 kW", "Power": "125 kW", "Address": "Khok Khram, Bang Pla Ma District, Suphan Buri 72150", "Latitude": 14.393029, "Longitude": 100.170874, "Provider": "EleX" }, "geometry": { "type": "Point", "coordinates": [ 100.170874, 14.393029 ] } },
{ "type": "Feature", "properties": { "Name": "PT คุระบุรี 1", "description": "2x CCS2: 125 kW", "Power": "125 kW", "Address": "Khura Buri District Phang-nga", "Latitude": 9.196067, "Longitude": 98.407843, "Provider": "EleX" }, "geometry": { "type": "Point", "coordinates": [ 98.407843, 9.196067 ] } },
{ "type": "Feature", "properties": { "Name": "PT พะเยา", "description": "2x CCS2: 125 kW", "Power": "125 kW", "Address": "405\/3 ถนนพหลโยธิน ตำบลแม่ต๋ำ อำเภอเมืองพะเยา จังหวัดพะเยา 56000", "Latitude": 19.196072, "Longitude": 99.875543, "Provider": "EleX" }, "geometry": { "type": "Point", "coordinates": [ 99.875543, 19.196072 ] } },
{ "type": "Feature", "properties": { "Name": "PT ขลุง", "description": "2x CCS2: 125 kW", "Power": "125 kW", "Address": "Khlung District, Chanthaburi", "Latitude": 12.438952, "Longitude": 102.302288, "Provider": "EleX" }, "geometry": { "type": "Point", "coordinates": [ 102.302288, 12.438952 ] } },
{ "type": "Feature", "properties": { "Name": "PT นครศรีธรรมราช 4", "description": "2x CCS2: 125 kW", "Power": "125 kW", "Address": "193 Ratchadamnoen, Tambon Nai Mueang, Mueang Nakhon Si Thammarat District, Nakhon Si Thammarat 80000", "Latitude": 8.39297, "Longitude": 99.970989, "Provider": "EleX" }, "geometry": { "type": "Point", "coordinates": [ 99.970989, 8.39297 ] } },
{ "type": "Feature", "properties": { "Name": "PT เลี่ยงเมืองชล 3", "description": "2x CCS2: 125 kW", "Power": "125 kW", "Address": " Ban Suan, Chon Buri District, Chon Buri 20000", "Latitude": 13.360588, "Longitude": 101.013706, "Provider": "EleX" }, "geometry": { "type": "Point", "coordinates": [ 101.013706, 13.360588 ] } },
{ "type": "Feature", "properties": { "Name": "PT ถ.พระราม 2 ขาเข้า กม.5", "description": "2x CCS2: 125 kW", "Power": "125 kW", "Address": "ถ.พระราม 2 กรุงเทพมหานคร", "Latitude": 13.665328, "Longitude": 100.443071, "Provider": "EleX" }, "geometry": { "type": "Point", "coordinates": [ 100.443071, 13.665328 ] } },
{ "type": "Feature", "properties": { "Name": "PT สายบุรี", "description": "2x CCS2: 125 kW", "Power": "125 kW", "Address": "อำเภอ สายบุรี", "Latitude": 6.689417, "Longitude": 101.557552, "Provider": "EleX" }, "geometry": { "type": "Point", "coordinates": [ 101.557552, 6.689417 ] } },
{ "type": "Feature", "properties": { "Name": "PT คลองหลวง 2", "description": "2x CCS2: 125 kW", "Power": "125 kW", "Address": "17\/19 หมู่ที่4 Khlong Nueng, Khlong Luang District, Pathum Thani 12120", "Latitude": 14.02701, "Longitude": 100.616328, "Provider": "EleX" }, "geometry": { "type": "Point", "coordinates": [ 100.616328, 14.02701 ] } },
{ "type": "Feature", "properties": { "Name": "โฮมโปร สาขาสกลนคร", "description": "2x CCS2: 125 kW", "Power": "125 kW", "Address": "เลขที่  689\/1ถนนนิตโย ตำบลธาตุเชิงชุม อำเภอเมือง สกลนคร 47000", "Latitude": 17.170486, "Longitude": 104.137256, "Provider": "EleX" }, "geometry": { "type": "Point", "coordinates": [ 104.137256, 17.170486 ] } },
{ "type": "Feature", "properties": { "Name": "สถานีระนอง Manasan café", "description": "2x CCS2: 125 kW", "Power": "125 kW", "Address": "103 17 หมู่ที่ 3 ถ. เพชรเกษม ตำบล บางริ้น อำเภอเมืองระนอง ระนอง 85000", "Latitude": 9.903455, "Longitude": 98.628019, "Provider": "EleX" }, "geometry": { "type": "Point", "coordinates": [ 98.628019, 9.903455 ] } },
{ "type": "Feature", "properties": { "Name": "สถานีนครพนม1 Siri Regent", "description": "2x CCS2: 125 kW", "Power": "125 kW", "Address": "เลขที่ 37 ถ.นครพนม-ธาตุพนม ต.ในเมือง อ.เมือง จ.นครพนม 48000", "Latitude": 17.375154, "Longitude": 104.793677, "Provider": "EleX" }, "geometry": { "type": "Point", "coordinates": [ 104.793677, 17.375154 ] } },
{ "type": "Feature", "properties": { "Name": "KFC ฉะเชิงเทรา", "description": "2x CCS2: 125 kW", "Power": "125 kW", "Address": "ตำบล แสนภูดาษ อำเภอบ้านโพธิ์ ฉะเชิงเทรา 24140", "Latitude": 13.579099, "Longitude": 101.006702, "Provider": "EleX" }, "geometry": { "type": "Point", "coordinates": [ 101.006702, 13.579099 ] } },
{ "type": "Feature", "properties": { "Name": "Silom Edge (สีลมเอจ) ชั้น 5", "description": "Type2: 22 kW, Type2: 22 kW, 2x CCS2: 30 kW", "Power": "30 kW", "Address": "เลขที่ 2 ถนนสีลม ลานจอดรถชั้น 5 โครงการสีลมเอจ แขวงสุริยวงศ์ เขตบางรัก กรุงเทพมหานคร รหัสไปรษณีย์ 10500", "Latitude": 13.729547, "Longitude": 100.536017, "Provider": "EleX" }, "geometry": { "type": "Point", "coordinates": [ 100.536017, 13.729547 ] } },
{ "type": "Feature", "properties": { "Name": "โฮมโปร สาขาแพร่", "description": "2x CCS2: 125 kW", "Power": "125 kW", "Address": "เลขที่ 171 หมู่ที่ 7 ตำบลป่าแมต อำเภอเมือง แพร่ 54000", "Latitude": 18.119713, "Longitude": 100.138855, "Provider": "EleX" }, "geometry": { "type": "Point", "coordinates": [ 100.138855, 18.119713 ] } },
{ "type": "Feature", "properties": { "Name": "ลานป่าเป๋ย เฮือนฮังต่อ น่าน", "description": "2x CCS2: 125 kW", "Power": "125 kW", "Address": "149 7 ตำบล ผาสิงห์ อำเภอเมืองน่าน น่าน 55000", "Latitude": 18.789875, "Longitude": 100.769768, "Provider": "EleX" }, "geometry": { "type": "Point", "coordinates": [ 100.769768, 18.789875 ] } },
{ "type": "Feature", "properties": { "Name": "Porto Chino สมุทรสาคร", "description": "2x CCS2: 125 kW", "Power": "125 kW", "Address": "หมู่ที่ 4 99\/120 ถ. พระราม 2 ตำบล นาดี อำเภอเมืองสมุทรสาคร สมุทรสาคร 74000", "Latitude": 13.570296, "Longitude": 100.289219, "Provider": "EleX" }, "geometry": { "type": "Point", "coordinates": [ 100.289219, 13.570296 ] } },
{ "type": "Feature", "properties": { "Name": "โฮมโปร สาขาร้อยเอ็ด", "description": "2x CCS2: 125 kW", "Power": "125 kW", "Address": "116 หมู่ 3 Chaeng Sanit Rd, Dong Lan, Mueang Roi Et District, Roi Et 45000", "Latitude": 16.062636, "Longitude": 103.620412, "Provider": "EleX" }, "geometry": { "type": "Point", "coordinates": [ 103.620412, 16.062636 ] } },
{ "type": "Feature", "properties": { "Name": "โฮมโปร สาขาสุรินทร์", "description": "2x CCS2: 125 kW", "Power": "125 kW", "Address": "สุรินทร์-ศีขรภูมิ Nok Mueang, Mueang Surin District, Surin 32000", "Latitude": 14.879064, "Longitude": 103.520008, "Provider": "EleX" }, "geometry": { "type": "Point", "coordinates": [ 103.520008, 14.879064 ] } },
{ "type": "Feature", "properties": { "Name": "โฮมโปร สาขาราชบุรี", "description": "2x CCS2: 125 kW", "Power": "125 kW", "Address": "Chedi Hak, Mueang Ratchaburi, Ratchaburi 70000", "Latitude": 13.537402, "Longitude": 99.799411, "Provider": "EleX" }, "geometry": { "type": "Point", "coordinates": [ 99.799411, 13.537402 ] } },
{ "type": "Feature", "properties": { "Name": "HomePro ระยอง", "description": "2x CCS2: 125 kW", "Power": "125 kW", "Address": "560 Sukhumvit Road, Tambon Noen Phra, Mueang Rayong District, Rayong 21000", "Latitude": 12.684306, "Longitude": 101.244655, "Provider": "EleX" }, "geometry": { "type": "Point", "coordinates": [ 101.244655, 12.684306 ] } },
{ "type": "Feature", "properties": { "Name": "HomePro เลย", "description": "2x CCS2: 125 kW", "Power": "125 kW", "Address": "560 Sukhumvit Road Tambon Noen Phra Mueang Mueang Loei 42000", "Latitude": 17.470892, "Longitude": 101.725919, "Provider": "EleX" }, "geometry": { "type": "Point", "coordinates": [ 101.725919, 17.470892 ] } },
{ "type": "Feature", "properties": { "Name": "SUPERFAST by PPWE ท่าใหม่", "description": "2x CCS2: 100 kW", "Power": "100 kW", "Address": "89 5, Khao Wua, Tha Mai District, Chanthaburi 22120", "Latitude": 12.657898, "Longitude": 102.058864, "Provider": "EleX" }, "geometry": { "type": "Point", "coordinates": [ 102.058864, 12.657898 ] } },
{ "type": "Feature", "properties": { "Name": "Market Village ภูเก็ต", "description": "2x CCS2: 125 kW", "Power": "125 kW", "Address": "61 10 Chao Fah Tawan Tok Rd, Chalong, Mueang Phuket District, Phuket 83130", "Latitude": 7.824522, "Longitude": 98.340263, "Provider": "EleX" }, "geometry": { "type": "Point", "coordinates": [ 98.340263, 7.824522 ] } },
{ "type": "Feature", "properties": { "Name": "The One Hotel", "description": "2x CCS2: 125 kW", "Power": "125 kW", "Address": "459 หมู่ 1 ถนนบึงกาฬ-นครพรม Bueng Kan, Mueang Bueng Kan District, Bueng Kan 38000", "Latitude": 18.35841, "Longitude": 103.647773, "Provider": "EleX" }, "geometry": { "type": "Point", "coordinates": [ 103.647773, 18.35841 ] } },
{ "type": "Feature", "properties": { "Name": "KOLAO BMW Laos", "description": "2x CCS2: 120 kW", "Power": "120 kW", "Address": "BMW Premium Auto, Rue 23 Singha road, Vientiane, Laos", "Latitude": 17.974273, "Longitude": 102.627949, "Provider": "EleX" }, "geometry": { "type": "Point", "coordinates": [ 102.627949, 17.974273 ] } },
{ "type": "Feature", "properties": { "Name": "มหาวิทยาลัยราชภัฏเพชรบูรณ์", "description": "2x CCS2: 100 kW, CCS2: 100 kW, CHAdeMO: 100 kW", "Power": "100 kW", "Address": "83 หมู่ 11 ถนนสระบุรี-หล่มสัก ตำบลสะเดียง อำเภอเมือง จังหวัดเพชรบูรณ์ 67000", "Latitude": 16.451985, "Longitude": 101.152862, "Provider": "EleX" }, "geometry": { "type": "Point", "coordinates": [ 101.152862, 16.451985 ] } },
{ "type": "Feature", "properties": { "Name": "Chiangmai ram Health Center", "description": "2x CCS2: 50 kW", "Power": "50 kW", "Address": "8 ถ.บุญเรืองฤทธิ์ ต.ศรีภูมิ อ.เมือง จ.เชียงใหม่ 50200", "Latitude": 18.793019, "Longitude": 98.977575, "Provider": "EleX" }, "geometry": { "type": "Point", "coordinates": [ 98.977575, 18.793019 ] } },
{ "type": "Feature", "properties": { "Name": "PT ถ.พระเทพ 1", "description": "2x CCS2: 150 kW", "Power": "150 kW", "Address": "เลขที่ 509\/3 ถนนพรานนก-พุทธมณฑล แขวงบางพรม เขตตลิ่งชัน กรุงเทพมหานคร", "Latitude": 13.751819, "Longitude": 100.442613, "Provider": "EleX" }, "geometry": { "type": "Point", "coordinates": [ 100.442613, 13.751819 ] } },
{ "type": "Feature", "properties": { "Name": "Stay Plus Hotel", "description": "CCS2: 30 kW, CCS2: 30 kW, CCS2: 30 kW, CCS2: 30 kW", "Power": "30 kW", "Address": "เลขที่ 153-155 ถนนบรรทัดทอง, ถนนเพชรบุรี เขตราชเทวี  กรุงเทพฯ10400", "Latitude": 13.754586, "Longitude": 100.526973, "Provider": "EleX" }, "geometry": { "type": "Point", "coordinates": [ 100.526973, 13.754586 ] } },
{ "type": "Feature", "properties": { "Name": "สถานีเรือไฟฟ้าเขื่อนศรีนครินทร์", "description": "2x CCS2: 150 kW", "Power": "150 kW", "Address": "300 หมู่ 4 ตำบล.ท่ากระดาน อำเภอ.ศรีสวัสดิ์ จังหวัด กาญจนบุรี 71250", "Latitude": 14.399998, "Longitude": 99.121566, "Provider": "EleX" }, "geometry": { "type": "Point", "coordinates": [ 99.121566, 14.399998 ] } },
{ "type": "Feature", "properties": { "Name": "PT ถ.วิภาวดีรังสิต 1 (ซ.32)", "description": "2x CCS2: 150 kW", "Power": "150 kW", "Address": "เลขที่ 1092 ถนนวิภาวดีรังสิต แขวงจตุจักร กรุงเทพมหานคร", "Latitude": 13.826043, "Longitude": 100.558889, "Provider": "EleX" }, "geometry": { "type": "Point", "coordinates": [ 100.558889, 13.826043 ] } },
{ "type": "Feature", "properties": { "Name": "ร้าน Army เขาชะโงก จังหวัดนครนายก", "description": "2x CCS2: 60 kW", "Power": "60 kW", "Address": "เลขที่ 23\/4 หมู่ 11 ทางหลวงชนบท ตำบลพรหมณี อำเภอเมือง นครนายก จังหวัดนครนายก 26000", "Latitude": 14.252612, "Longitude": 101.178986, "Provider": "EleX" }, "geometry": { "type": "Point", "coordinates": [ 101.178986, 14.252612 ] } },
{ "type": "Feature", "properties": { "Name": "PT ถ.จันทน์", "description": "2x CCS2: 150 kW", "Power": "150 kW", "Address": "เลขที่ 433\/30 ถนนจันทร์ แขวงวัดพระยาไกร เขตบางคอแหลม กรุงเทพมหานคร", "Latitude": 13.70896, "Longitude": 100.515499, "Provider": "EleX" }, "geometry": { "type": "Point", "coordinates": [ 100.515499, 13.70896 ] } },
{ "type": "Feature", "properties": { "Name": "PT ถ.ฉลองกรุง 1", "description": "2x CCS2: 150 kW", "Power": "150 kW", "Address": "เลขที่ 65\/1 ถนนฉลองกรุง แขวงลำปลาทิว เขตลาดกระบัง กรุงเทพมหานคร", "Latitude": 13.746697, "Longitude": 100.792345, "Provider": "EleX" }, "geometry": { "type": "Point", "coordinates": [ 100.792345, 13.746697 ] } }
]
}
